segment_id,순위,이름,이용자수,누적기록,거리_km,경사,시작_위도,시작_경도,끝_위도,끝_경도,경로
16697641,1,Chilly Hamnida,39126,91369,1.06,0.3,37.569475,127.00456,37.56822,126.992816,kcmcFcxieWh@[DF^@NLL?JKVERAHNLBNGNONB`AAVOVCNMVJFKHE^o@@MCg@Jq@BEh@Q`AKHKRi@FeBE[EC?SQm@?YDEN_ATc@HGDUAOBQCGMCOIDOHKPG@BP?JFLN`@JTYDOJBLTTh@N?HJNB^CNOXOD@ZK@CTGLKH??VHVZ?t@Md@YTn@NPPB?SIOE_@A@IW@GCGCABMGG?UMC@OQKDKQBIAQI?c@IQ
5408002,2,반포대교 (북쪽),29595,170223,0.69,0.0,37.512577,126.99738,37.518403,126.994545,oqmcFehkeWPr@`@x@@X?VEr@OR]TMLGT?h@FRZ^n@f@VVh@pALp@`@x@LJpAVf@V~@Nd@Nj@DfAPH?TMNQZo@PGVFz@j@bAJf@RNNDXCp@DVNTR@TIf@m@
15266531,3,Cheonggae Plaza to Cheonggae 3-ga,27459,54425,1.23,-3.8,37.569107,126.979088,37.568439,126.992393,_blcFiujeW?JNXHBBFF?FDNT@TFFCVAZFHDZF@FP@PBBEF_@w@ICQDUPYBKH[JKKEMKEMBIFKBU?YDCDYFMNUBOAGOCCIASc@KIG@IHc@Tu@OGEMMWACPZ^AJKP?HMFQv@Q`@?VET?DDHDNBb@Fb@Gj@FXGT?^IVGHKDu@F[HCHE`@EFAf@AJKXCNMVOJCFQDMKO?g@VKAQBMCc@HOHYIKKICMBq@\SAIBYCCIG?OGON
9197751,4,6 Bridge south,26160,39690,0.62,0.9,37.546285,126.907392,37.542437,126.902593,{skcF_lleWnCbAz@f@|@b@vBx@b@Zb@Tz@Zh@LlBdAh@JtAd@jBXPFPNLPDTBX@t@I~ACdA@~ACzBBn@Er@FdCGp@
6952033,5,Loop Namsam park north side,22806,207549,2.01,-1.4,37.55527,126.988062,37.555561,127.000257,k|ncFczteWm@Sc@UaBoCOw@G_AMo@o@}Ai@_Bk@cAK]g@mAuAkCm@}AMk@Ug@EUUe@Ci@Am@@G\?`@XXZp@h@Vf@TVPPPDRA\WZ@Xr@T\LJPHx@Jd@APQXk@Ng@V_@n@Un@c@DQEm@CaDIk@EsAM_BSe@gAeBOa@@m@R}@Hq@J[Bo@[XG^q@pB?PLdA?l@O?ACSs@Gm@Fo@TcADkAIg@Gk@^aD`@_BNMb@LZR^PLEVWVc@CaBBKR_@d@A`AJr@^fB~B?W_@{@@q@UuAG}AUi@WWMIc@Me@A}@aAe@SmANq@?g@Ec@Oq@a@J_@l@ANKBeBPk@BGLGd@EJSV{A@eBRc@RHJbANn@XMJm@Zs@^QX\En@GTEl@`@r@SMQU@g@Ha@Jk@AM?EOYMAQLUf@WzAWUa@uAOMGb@Dh@QjBSf@e@HIFSh@GxAYZg@AS^ZZj@Vb@Jd@B^Ap@KV@h@R^V`@Tf@F\Vb@NXd@D~ARhAEn@@Z\z@Hn@a@M_@WSg@[a@c@S[_@a@Ge@EULOh@DNBn@ETOPa@\e@Dm@a@_@?]d@Oh@SbBS`ABj@Jh@Cp@MfAUf@CV@H`@`BXFS{A?Ql@mCJ[X?Ql@En@Mr@CZJ^v@jAj@|@Lf@DpCNnBCj@?rAHj@Yb@yA|@i@rAMT]VaBAWGEEMSOg@Ya@_A`@c@I]_@g@aAg@[_AkAa@BEj@FNZ^FLbAtAd@dARn@Z`@BLXd@Xr@Ph@d@~@`@rA^x@p@rB@r@Ft@Rh@t@z@Rb@L`@Td@f@T
27160996,6,[TOF] 남산 순환로 업힐1km (by JK) ,22756,208155,1.0,2.7,37.553473,126.997498,37.551503,126.997558,_ujcFc_neWa@]g@WYKm@GIGQIi@g@e@]g@KI?k@V[T]t@Kb@Hr@HR\Xh@^h@Vh@JZLZHh@f@l@JH@PGB[|@{C@M
19010968,7,Bogwang Tunnel to Jamsu Bridge,21328,121177,1.0,-1.2,37.524404,127.002702,37.518948,126.994525,mjncF}xpeWIs@B}ABs@RqCKq@Em@Do@?s@Hq@^_BCSCmASQMUSWg@Cc@KWM[CKDg@@_@KOBY[M_@JWFi@Di@Og@?[OiAIU?U]k@
16391228,8,Forest to Seongsu,20075,120340,0.51,0.4,37.537899,127.041367,37.539824,127.035995,ucjcFwsteWDGDYTYBUE]BQDECIBIDGH?POF@JCF@BGFCBYQCGG?MIG@WEE?EKQDm@Je@?OBIAGDGJi@EQBU@CFAFBN?BBFKVIDE@GK[DQ
27261839,9,잠달(성수대교 언덕훈련) 성수->한남방향(오르막시작 즈음 왼쪽 파란색 한강 이정표->정점 바닥 초록색매트),19992,101892,0.23,2.0,37.533964,127.032225,37.53458,127.029841,k|lcFs}teWGM@C?CGC?EMMWDa@]_@GUDg@A_@WOYMOMa@UIBOCSa@i@MEAGGEMDQ?ISCAEBGEGBIIOCGOGGESABEAKJKK?KWIG?QIAIKGA@GCM@AK[MAIMC?GEE@CD?CGDIDC@O
25680364,10,Über die Brücke,19508,105247,0.2,0.0,37.545833,127.03008,37.544677,127.031677,oqlcFypreWk@\E@EE@Fn@p@_APe@TED@ZI?GDW@EA?EEAABCGOMA?OFCXGAGZIJQCEDANGN?JQ\EDAVCLS\Gb@E@ATQPGNIDE?i@OMHK?
7455930,11,[휴레] 남산TR Part 2,19041,145066,3.09,0.6,37.55498,126.98401,37.550949,126.997625,qgjcF{treWoAbAWVU\[ZUZSd@{@|@aAt@uA~As@l@]L[QYYMWNc@D@@@Oj@CMk@g@We@SG{At@YRc@Te@JUX]TW?sAYe@GY[QGcCDSUYIc@E_BGuA?}@Qy@o@_Aa@yE_Cq@g@cBoBy@w@{A}@[ISACl@@NDFWAE@AFBx@E^W~@m@Ig@f@OTOFQDCAmAtAAFHJBJABWDQAYa@CFODCB?VGDAHKLCHKDI?E@GLGR@BGZ[t@ERGH@LMPARY`@GBm@Mc@H_@BUE]BgAC_@O[A_@Ku@Ge@Ma@Gc@Hm@DOCq@e@w@UMQQKY_@GCc@Aa@B[E]Ug@GkATq@DEAKOGC[@SFgAE_@K_AISOc@Mm@Ti@J}@AS@]A_@G]QKAQCo@DY?o@MS@OGs@AE@QREBIBO?KDi@A_@DYEYDs@IQOo@[CEAK@EAQ[YQGWAKQWGSKa@UQQIQIYi@eAM_@k@e@u@}@IOGS_@[I]SCMGEIAMISBFAPFBTXAPMFMGGISAGBSGSBSDu@\e@`@QJGHo@POLE@GEI?a@Jc@@MA]MToA?kBD]KWGw@GMGGEKCU?[Im@Y_AGG@MEGIEIOIA@SBE?WKOMK?WKq@IEW@[g@K[MIUk@M@SH_A?}@uAAEQOOCKOGAi@LI?MKOBIDYBm@KSOICa@b@EB]ASSKU@[Iw@QQAYMEi@e@BDFAUMKKKSI[Yg@SUi@UQUKUIIa@aAIk@IKeAg@gAoAq@WKMKo@KUWYM_@GYAOHc@Du@QcAGSIIIC]Ea@q@aA_A[UAGKEKQICQAi@L_@T{@\i@La@j@E\EWF_@?a@?YCIIMIWKKqAYSO?]BSGMOWCQSWSc@_@c@?QGIDa@AWGGS?ICMDON@YKk@@MBFETFE?ASLOBUCYSk@UQBGBWTDC@ICMECDKIIAI?IFMJM?EDCDM?DEFICAGg@KECKk@IWIK]OU@IMc@CUB_@E]QYa@Ig@Ka@@]AMUm@OED?DSFw@YQSUMAKEUW?@AITGDDLB@AIe@IUy@c@MSWQ?o@Ri@B[KUa@a@YQAQGOEQ@EEK?QDKCOa@q@C[Mm@CaAEGMi@@QAGIGAIBSCIDg@Ka@HSGUEe@@KGQMOM]q@{@OIOECIUQGCc@@]S]KUQI_@?_@GSAM@QEk@QEY@WGSIYUc@OUY}@u@AKQ[Kc@QYMK@KBGOy@KU@EA]Gq@ESUk@C[Me@?GIEFQE[BWDWDMJKf@eAJy@AQM[@e@EUH[@KGWIkAKS]Aa@I[Oa@i@GCDOZa@BIZi@FUBi@?SOc@?M@GKUAGGUAOQs@m@y@COKQOMWEKIWGIQGm@@IG]Ci@ECGA[DUOKSKIM_@W]KICWKU@UESKMOYQIUk@i@QOMSDIEQ??GIOSG@IWy@GC?IG?CI?QAKOHGCKMWGEOO[GWIUIIBENOh@@t@L|Az@v@VvBErAHnA[r@YZ@VBh@PZZb@Nj@Bd@HhA^`@X`@Lf@Vj@d@|@j@SEOQMGSSA_@NOPKTIZCNMJQKW?EXg@JCHUZg@LIPFREFDPAV@RRD^DBDCAGJMn@c@RWp@k@`@c@HMAA^]LYNCDBNAZKRERHLA`@FHAHCFKROLEJAbAa@f@CP@f@QPANFN@FIH@FCRABIVBXCTIVEHGz@IN@d@NXEPBx@EVRDLVRd@Jh@D\C^FHFVl@Tv@PXNb@Vf@JJBJd@f@\d@LJd@XXBTPVFL@XNR?NAPUNK\XLBb@CPF\B\IJ?JBFJRDz@BTBFAh@HTGZEv@J\CTELOd@Ut@Mb@@\AHD^Q^BJEhAMPKf@GN@|@OZ?ZFX@NDl@EXO`@Ml@FJGZBTCRBNGNCF@DCN?TIz@IZOh@BZNHCJBHFTBh@b@YSa@MAIBEBEFBHEH?HERC^FZ?h@Ln@HLCL@NGLFjAABORGL@RSJ?ZOD?PKJ@DDFAF@HFPF^?JBRTFDJKBIDCL@XEf@TZF~@EVBP?JCJDHAVNZ@HDVBv@e@HBJGF?b@KPMLCb@c@RALELMh@]t@G\@\In@SPDLARIN?RCP@PCBB\IRBTILH\Ab@BLEBIL@FJH@NFTANBPGF?@IJFPBHZ?FJPL?FHLCb@JTI\E|@_@p@S`@e@JCn@HZ@HANFVDPJp@Fv@V^R~@TPLXZFBPRJB\Eb@UjAMn@Q`@D`@CNB`@LjAV~@Nz@D~@I~@_@ZAXKf@F|@KLEh@It@@pARhBx@XXXj@Lv@FjANl@?NALDN?NT^b@j@FP@NPj@Hd@Xd@Vr@RNLv@JTLp@Ph@p@`AJh@@TLXHb@@d@BREx@w@jDIj@?bALh@Fd@Ab@Z`AZvADj@^`B~@hCZjAFn@Lt@Hl@Cl@Bt@Nd@FdAh@jDAHF^?`@VvCFZh@x@Lb@Jf@@b@XfA@d@Cd@K`@ObAYnAk@hAm@|@[ZeAn@UTa@z@Qh@Il@@l@JxA?d@HbCCp@@VHj@LXFj@DzACd@JpAHb@JlCPjAx@rCFr@H^Rd@NfAHVFd@FHRp@l@bEBrAAbABfABPADDd@DN?NDJ@VALLz@C\?FLR?f@PVb@b@b@t@VZb@x@TRJ^tB|C`@|@HZXd@\\XHb@DXVJ@BAbAEh@VXf@v@C^KJ@LCN?ZHR`@d@`@HXd@|@LLb@j@Rf@Fr@Rh@Hb@@P
5408106,12,63 Building > 한강철교 ,16831,72536,0.98,-0.7,37.52034,126.941338,37.517091,126.949153,}jkcF_cueWLEFBJ?NCBF?FGRCBGJb@TXFJATFFCHDj@GRDRJLPPDHLLAFBRXTIp@g@ZQ`@CVDJHPFF?DMNGH?LFTRBFTBJJTALLHRH`@CVBTPNFb@HFF@HHBP?h@NNBHHFLPJD@A@DR@NHTCNHLBBBRBLCNMd@IJITCJQHDJ@FCXHJABBHBJAPHJ@BDBBXHd@Jh@FDGDYTYBUE]BQDECIBIDGH?POF@JCF@BGFCBYQCGG?MIG@WEE?EKQDm@Je@?OBIAGDGJi@EQBU@CFAFBN?BBFKVIDE@GK[
19302594,13,Ichon Dirt Path(E2W),16763,70020,0.92,-0.6,37.51483,126.980972,37.516565,126.971039,uhmcF}fueWAACBGAEGOCGOGGESABEAKJKK?KWIG?QIAIKGA@GCM@AK[MAIMC?GEE@CD?CGDIDC@O
12871071,14,banpo to ichon,15703,64353,2.1,-0.3,37.518446,126.993044,37.516851,126.970511,kvkcF_steWE?IKIAg@B?FDF?XEPMLI?[O_@E@DIF?FKJIVk@`Ae@JY?OKWCg@QYOIMCKCCS@GE[?_@JS?EAOSGD[Ka@a@IUAMOWGG?ECCIOEGMGEIQWI?AICAI?GNG@YGMAMBEEG?UQAEODW?GHEBI?EB?BG?ADKDM@[LIAWQISOQWQEAEBGEKa@EAABE?CCAEEGEc@IGIS@IIK@MCMOEKBYOISQMEKEBW?
21112124,15,Yeomchang Tunnel to GaYang Bridge,15649,63538,1.59,-0.1,37.557138,126.872491,37.566179,126.858658,wlkcF_oveWWEi@a@c@EiAGc@Mg@EiA@e@Ee@BEAAQc@LO@W?e@GU@C@e@A{@j@KDM?[Wk@Y]YKQGGOCWAeAF{@Le@Da@L_@CGASe@iAi@kAYc@Ca@Ta@N_A]c@EWKYQDC?MGu@IWIGK@YNU?WE]BMHWFq@`@a@HMGCEI_@C?MBe@p@SCa@KI?
8231184,16,올팍 장미공원까지 스프린트 ,15573,45037,0.23,-0.6,37.51541,127.130098,37.513246,127.128998,cwicF{v{eWiBbA_Br@_@`@{@t@w@Ne@B}@C_@^aDv@FS
27728091,17,Bridge to Bridge Northside,15414,86303,0.81,0.0,37.553475,127.044198,37.550652,127.03591,gkjcFum{eWxBo@`@_@NId@Bz@Ef@K`@UbAs@`@U`@Mh@Id@Sh@K`@Of@Kf@Ch@?ZHJdDMf@[Z]`@c@To@VmATg@NYDVFTCd@Bd@N`@RR@nA@l@Fz@j@\^Tb@JZCRLj@DLXb@r@n@\rB?\BLhA~@n@t@^VRV?HZv@Nl@?TJ~@Gn@IVKp@GJ_@Ve@Re@NW@]\I^Cb@Qj@_@V}@b@GWKQGUO[Bi@JSJs@AOOa@Ly@c@wAMM_@Uc@Sg@OyAq@_@Ua@[gAc@[WSYa@Ss@{@Ya@a@a@EOKq@Wg@[]c@WaAeB}CoD_@]Ma@Rg@NKvB}@LSXIb@DrAIf@Q`@SdAw@b@Qv@Od@UjAg@h@G`@?r@DHHBn@PjBC`@QVcAx@_A`@e@LMHe@De@PSB@Bf@A`@@d@Rb@Lf@Bf@?l@L^TbAt@\x@Fl@Rd@\d@n@r@Jr@Lh@FJBn@dAt@Xh@X^b@VLh@Zp@H^@z@Dl@UnACTOf@a@Tc@P_ANIDIT?JIp@Qh@a@Zo@XM@I_@Gc@QQGk@LI@UBUJO@C@OCa@KGHy@EWSYAISg@y@k@WK[Ic@Ui@SoAu@kAe@OMYa@SIuA_BKC]]Ic@]gA]a@_@QOQu@iA_@c@EQ_@]qA}Ao@k@GYLc@?IVOd@MhAg@PS`@KXDfAGLCXIf@Yv@g@bA_@f@Kd@U`Bk@`BK^F@x@Fj@Dr@?j@yAxAgA`@gAHs@PADHJf@Jh@Fb@Lh@Bf@?b@Hb@NtA`AXb@PhAV^^\b@l@Dt@Jn@LV?p@\^d@Vz@p@f@NTRGn@^`A?jBCl@Gt@O|@e@Tc@Pg@Dc@PKhAOb@{@r@a@RICIWKUBY[KGKAODOFKPw@DCEkAFu@c@uAaAaA_Ac@i@MYM{@m@UKe@Ic@W[YMOUIm@_A}@m@Wk@Q{@[q@a@YQGY]oAoBOI}AyBMK_@UM]?GL]NG
17567260,18,lululemon - Han River,14823,68623,2.0,-0.3,37.520116,127.093886,37.519635,127.071912,udocF{rweWXI`AS^FNCPG^@XGJAVKJBPEZBTERBREH?HGDDBCJ@HGN@NKTAz@c@J@^E
12333537,19,Memory Gongs,14682,65171,0.12,9.9,37.503671,127.069559,37.504296,127.068669,{ykcFyk|eWyDZWJkCb@sAPkAHiB\kA\eBxA[PYFm@CIJa@MMKM@GCCBGCUBOGOYSGI@?Di@HEEUCOBE?[OGDMIIMa@UA@OUMIKACAM@IAMLUDQAC@GEAICAKDK?[HgAKu@EM@]EIQGEi@?SDMGO@KDe@CODOGSSgA??BKB[Q@_@GMYb@FLWd@KHc@j@A@]AQDQCYD]?ICa@CU@KGK@IEOBW?[I]Q]?ELC?wAs@K@UMI?QFW@IJCJGFGd@c@|@_@\Q@{@]QQGQGG]QKS
13069367,20,양화대교(남->북),13441,21843,1.0,-1.2,37.539466,126.900762,37.546336,126.907938,aqncFaf|eWg@YCQICIMQGWJUOMASQIOAOEAIOMWAKIGAGGCMQASg@WKYQAQQEKIEKUIKEKYIQOEIQOCE?GDEACC?@AIQ
17194605,21,Wonhyo2Mapo,13195,59337,1.19,-0.2,37.530354,126.951454,37.53672,126.942009,m{mcFy~ueWEGICCEKAACFIDS@QEIFUIG?EBMJIAO@ECKHMCE@SBIEC@KBOFI@[DE@GJSH_@AGBMAQF[AG@GIUFk@EGFI?KDUFGFQCUC@KGCE@MCCFQ@_@GUJYBWCU@o@E_@AEE?ACIYLg@EYNm@@OAEEC?E?g@FGAMJID?BEGEAGKIGCG@KSKDIAAOPm@DGF@V_@PK?ELQDUCEA?@CGILOFABKAI@EIA?QMS?MQa@Ei@EM?QCE?OQCUBGGQ?]FGCU]SGGEMUi@YQY]I]EG?GDG@MPED[BIDSCKDSAOGIKSBKFSDMLQVCFB@@BCFIHIBEAOIOQGKAKQWSGS?KES[AKM]OO]EKGGWK?EGC?QU
23003952,22,올림픽대교(남단) -> 천호대교(남단),12872,63068,1.52,0.0,37.530151,127.107904,37.541848,127.116207,ccocFwoyeWHIB@LM^MNAV?VHH?HFJ@FHLBH?LLJ@b@A`@EXF\@@CHARNH@JFj@?TOb@QL?JCF@PKRANG^SNYJEXAJGLSPELGb@GJBVCX?ZMlAQPGd@A\BLKJ?PFREv@HVCLHPGNIr@NLINCNLRVVDFJL@RN`@BNGb@El@]XI\Oh@k@PC`@@XHX@HFLDPLt@D^FtAf@d@FVJX\ZPHBVAHBH?XKz@Mh@MXEZFV@d@DVFVBNFH@NTHXp@`@\j@b@\@D`@\F?JJLHb@EZXRWFEV?LFHRHHDJJDBJADFBPTA\Hf@Bf@FLLh@@TBBDCFNBAJDVNXJD?\Gd@PNLLFJr@Id@H^?TDPCl@OJK?KCM@a@JK@ICEFDLp@v@AHLP?HZV@TCL@ZGFKACBA\B@SL]D[?AACD[xAHj@AVBVAt@ELOLORAJIL
11845336,23,Yanghwagyo - Han,12827,74876,0.62,-0.7,37.548206,126.881084,37.553144,126.878001,kwicFktveWTq@H]JwA?k@COYo@_@qAAOKOe@kAIIMWWUO[?a@L}@AYGWa@m@M]@OLW@KESS_@E[B]DILGTERYJc@Fw@Na@Ji@?GBWDEPIJ@XCTBNFL@DAJIDO?Ii@_B
2413157,24,청와대로 동행 Cheongwadae-ro Eastbound,12732,66472,0.8,-0.8,37.5833459,126.9739714,37.580988,126.9801445,ogjcFoizeWSi@KKWe@GEKe@QUSQIWOOMc@G]Ck@?WIQ@IGg@I}@JwAQUAIDYc@mAIm@@a@Mq@?YFg@HSEa@@MDQ\YAWJSN{@DCVKHYAGKM?]O_@A]BUCQ@UGGCc@I[KQCI?Y@MFM
17428885,25,마포대교to서강대교,12213,49875,1.35,0.4,37.537285,126.941574,37.543169,126.929527,ixmcFirefWJGRGLKFQV]L[Cg@Ha@P_BH[NwAn@_D^cCB]`@qBD_@|@mCN}@Ao@Kk@Um@QYG_@Ws@I_@_@u@OQo@a@MAsAF_@LcABy@Nk@@WBu@Pq@FcBF]Fo@Ra@PwBnAw@n@KJORO^o@jAu@fBKLUj@W\i@lB?JGRWj@BZPj@X\x@x@LPj@f@\RlCbCvBtAr@ZH@x@`@~@^j@Xf@JVLj@PtB\BH
11845321,26,Mokdonggyo - Yangpyeonggyo,12162,63123,1.1,0.0,37.530775,126.889203,37.539991,126.888573,{fncFmsafWHh@Ch@BlA@Fj@h@JPBLGz@Kn@Ah@Dx@Hh@@pASvAAXQz@OVa@^Yf@OP
5422492,27,여의도공원 (Start/Finish @ Entrance #12),12055,201854,2.49,0.1,37.526306,126.923902,37.526178,126.923796,_qmcFiydfWZKRQh@ITQJa@AUJ_ABKb@m@t@g@^QHAd@FDCPS@EFM?MHYNWL_@f@cAVaBF]FI^KJ?`@Gh@ANAFER[FUb@y@HaANk@De@Ga@?QHUR[RMn@AFEDa@FSRWFYPQl@_@^K^[XORU\Md@Cd@Mx@g@Vc@h@_@TGVUDCh@?J@VLZ\RN~A^V@vA[p@?d@BH?ZQPOLQHAr@Fb@GN@\PJ?FHLHBAAA^I~@RVEZ?HCXYHEf@CHGf@c@FI@IROREb@AVKTAFCN@FIHCv@Af@QNRb@JTLVDPJHCJAFCX?b@C`@Dz@?ZF|@BXI\AVOR@JCb@ADBFE?EVC@CF?BMHEZAD?NJBAR?VV@DHBAB?EKOI?GDQ@KSICG@[Li@^SBWAIEK@IA_@Nc@B]H]Bi@U{@?YGW?]Fc@TOGSUMC[QU?SKGIm@PO@UCQ@YPGAe@JQLSCO@YPIJWPOFQJc@Fm@j@G?GC[TOOWECEIASFKFGAIEEKI?MMMGa@Ds@E[HcAf@aACUCu@?k@Tg@LI?a@Sk@ASCWWU][M[?WDWNUJSLOFUTw@l@s@\I?IKKBc@VYXsBjAk@n@[~@GFIFY?WNOVKX@h@WdAOhAq@vBKFQFmBFMDM\GdAMh@Oh@]j@Yj@Qr@QXKFQ@ME_@Do@^s@bAId@GNCPMj@S^GDe@DSNSDQFEACK
6471711,28,여의도공원 산책로 트랙,12016,204389,2.51,0.0,37.524679,126.921424,37.524584,126.921311,gckcFuaafWfCpDv@`ARNj@n@v@pAjApA|@lA`AhAPVdBrB
16715116,29,한강철교 → 한강대교,11457,54520,0.52,-1.9,37.523248,126.955949,37.52068,126.960827,usmcF}obfWKGUYs@o@g@q@{@w@QWgAk@sA_A_@a@q@i@eAcAwBiB}@o@UW
1980921,30,서린동 82 4 Climb,11265,28060,0.82,5.0,37.5684755668394,126.98589750577416,37.56902969445807,126.97867280815446,_jlcFepafWJE~AHt@A`@BrAV\@VDf@@`@Hd@Gn@Nt@@f@HpABh@Ff@@lAC~@NXLLLF@`A|@bCnCh@|@hB`CvAtBv@`ARNj@n@v@pAjApA|@lA`AhAPVhBvBlA`BnAvA|D`D|CdB
16086791,31,탄합~CU스프린트,11141,55387,1.9,0.2,37.519188,127.06791,37.518749,127.087809,ajncF_dcfWcBs@KCa@RODoAp@e@`@mB~@wC~AIH[JcBv@c@NINC^KR{@h@_@J_@Vo@X_@R
14710004,32,SLakeCircle Start East,10662,167998,2.65,0.0,37.513088,127.106923,37.512999,127.107182,w_jcFu{_fWsBgAqByAKIo@Uc@a@{D_Fm@m@kAsAi@s@[m@gBqB_AoAeBkB}AmBcA}AuBcCoAgBmAyA_Ag@_@IgAQo@Ho@Ko@A{AKcAAQE_@?oAM]?]D_@Ii@E_AUIE_AGq@A[C
6884991,33,석촌호수 런닝코스,10541,166317,2.53,-0.0,37.507053,127.098628,37.507086,127.09861,kpncFs|afWBR?JS~@KJGVIh@AbAKTGZ_@x@Ml@INEReAt@QTGA_@FMAMB]GQAe@Hc@Lm@@MBaAFaAVUJUXI\?h@ET?f@@HUj@CTHVLHF\EZDROj@@FPPCHFTGN@PLV@l@JTD@
9536331,34,tree alley ,10447,30666,0.36,4.8,37.548822,126.992996,37.551268,126.990714,{`mcFkx~eWOl@EX?b@U|@CR]r@MNIB?JYPEFE@EJKJQj@Kn@ILKXKHAHMHGV_@XYCy@ZGH?TQXGNSDG?YTG@ECE@]COBGAWDOIM?GDK?EECA[RKP[NCFEBGAQDKFGLSPCR]j@I?MFUD
26829624,35,만남의광장 에서 족구장까지 업힐 JS1,10023,126650,0.59,2.7,37.517979,127.117077,37.51804,127.122705,wkncFwklfWFULKJODMPIDOHGFIJaAJMLe@@OHMFa@HS?OHSGM@DAEFDCGL?JDFEJ@HCDFJIL?@BF?BCLCBCF?LG?BJKD@FCJATUPABGACHGBMHIFYFK?IB?BO@AN?BEAI@DJ@LHPDDEPCB@JAF@NGBGlAAJGl@@HD?[Ld@LHBHFFLDDFP@NJHTLBLJNBCF@BRXF@DF@AJF@BHD?BJDBHJH@DB?LJBA?G?RLL@BF@BA?CFCCHBDHDBC?HB?NLAJJF?N@G?BFDAf@BJBC@B@v@BLCl@AN@XP\
10499895,36,Foot Bridge,9956,50019,1.62,0.1,37.541148,127.031591,37.543689,127.024437,ecmcFydlfWJFAJD@ADB??DEJ?NEHBDCLD\LLFVPVDRPZHRTb@VFR^XGBCJC\CNJNDNJH?TEBCL@TSJ?HEj@BTABC@CF?DGJEB@ZGDBBDJH^FPC\XVDNEP?VL^VRCT?NFB?FFXERAFIJBDHBEFAFBFABCD?HGNJPOLA?GBC?i@KQCUXg@@]PMBMBe@FINKNi@HKF]HKAQD?Na@CWSWF_@MQAKD]CMDo@AK@CD@j@IHEFMPEJIFGDIFEF@DDLDVE\BXAPIBPEx@DV?HEFOh@CZ?FPPFRBx@JPRHRNR^Hh@PXPLX^\J^\^Ax@OXC\Ll@ATVBFJF?BHFBTPDFJDCNBJFFF?BJBBDT?HFLDF?FBHAHDDCFJFBDDTODEF?AQP@NEJDDCBBBAFBBD`@H?PFLFAJI^Af@JDBDJTFPCLQJEPEN?JALENMFCd@FLLZJHUFY\u@J]?QE]FORcA`@q@JCLSFQp@oAJILUPO^o@XkA?e@Rc@RWDO@WFSFIDKT{BRq@
8584198,37,여의도공원 Conrad Entry,9053,87275,2.66,0.0,37.526845,126.925087,37.526544,126.92444,yxlcF}zkfWfAKpASXIZ@XEJIBG@GCC?FEBc@VCNFRL?HJF@VAJHJ?JFF?XRDANNJDNEXFd@?HED@b@MJADEHCLKNWHCAEFGJEVY?[@GBCLE@G@EEQF_@FOAQBE
7440088,38,[휴레] 남산업힐(약수터->버스정류장),8742,25443,1.77,5.4,37.550442,126.998881,37.550763,126.991291,u~mcFk|lfWF@d@?ZDNG`@ETK^Bl@IRIX@PFNT^\\NH@ZVRFJLFRTXXPHLXTJLRL@HL?DHBBFADBRTBHLR?f@LvAAH@PE\D^H^NTF@NJJBPAFBNCFBH\JJF\JHTZL\Sg@AI[[GYMM
13794817,39,잠실대교>청담대교,8024,25754,2.02,-0.2,37.527847,127.088528,37.529363,127.06644,{tkcFgeffWDJRM@DEDPGF@FHD@D?FKHFh@JDCHF@FNMRDDIP@FMAENEHKXIPCNMf@SAG@GJGD?CMBEd@@JBNKJIDAJD@DHELBBADYBCLAPFj@ATYD@LLRHLNDAHPDC\@HF@DNFPANIf@KJ@VJ\?LIJ@^JJJV?TAh@QXA@FFAFKBA@EHFNIPBRAHCBBJ@BCBGHCD?CEJEH?`BZAGOBCK
14201892,40,상암구름다리,8013,19531,0.22,5.9,37.56052,126.889403,37.560929,126.891083,{eocFkrmfW@RDDJDVARUJA\OTGDGHGZGZ@LEDDPEp@Zh@DPFh@?nAQNBJLT@h@S`@g@FCFAFE\TJMNEJA^YPCHBd@ZZz@FZJhAZz@RXJVH^Bd@Fh@Xn@VZ\h@JHJ@LPFP?DDDH\^b@d@bATLXBBBF?NNJCHPLLD?DCJAXP
33377239,41,중랑천 우안 하행(장안교-장평교) by 마부작침,7983,35213,0.94,-0.2,37.580333,127.076587,37.571998,127.077627,{tmcFk|lfW\Xt@^NN^l@dAv@h@l@BFJ@HNVJPZLHAZHn@@n@ET@JAXRz@TTJRFBLCd@JLPDDHTPT^p@@F@@GWY_@Sa@KMKUGAOOUCi@SU_@GW@WDQAK@OCQ@SK{@Ae@EI
26075850,42,탄천(장지천-광평교),7890,39690,1.47,-0.5,37.477824,127.117594,37.488925,127.109018,}uncF_dlfWXYJSLSZWZa@NKPY`Aa@vA_@b@]FOHIBIFKRM^k@Ds@b@eALw@@i@JMRKb@Gb@@JC`@Uh@Kj@]LSPa@DC@MFOPENB\Av@Q`@Ar@K^?L@j@VLDb@\r@b@x@x@VPPV^`@\RLBLJd@z@HxAA\BPCn@P|@HNLHj@F?@JBVLdAhB?GM[[i@KGIUKIIMECQ@QAICOKMUIWCg@EU?YFW?KGw@IMKi@[k@QCGEGKu@w@WO]_@QG[c@[Ya@Sq@c@
11338494,43,"Gayang Dae Gyo south to north (가양대교, 남>북)",7782,9865,0.8,-1.1,37.567105,126.859624,37.573266,126.864233,}~jcFsxkfWf@SlAG^OAGNEJ?Z\RBZWRa@Z[N[@]FU?UHk@^_A^u@J_@?IBKLOXm@LQDOn@k@LIJM@SFa@BEDo@Re@`@i@Rm@NQ?UH[@IOa@@IJKNMLQFQD_@
18443666,44,시민의숲 to 대치중,7728,40140,1.23,-1.2,37.47419,127.039063,37.482419,127.048126,wfjcFs|ifWUmAGi@Q_@OSGOESIe@_@kAWc@a@mAC_@@WEc@?{@CIYUCG@m@H]@e@CeACm@@YFKHs@DUA_ADULK@O^kA?QE?@CA@CIGCmAuBAGg@cAQo@IMESKU@[ECAEHc@AMDW?MI?EFEASk@Km@CGQ{@GOOSIC[Hc@VSBAQBK?IGQAUEY
8231277,45,The Descent,7188,23366,1.77,-5.7,37.550154,126.992228,37.550596,126.998824,wxlcFa_rfWV\R^ZVLNx@Zj@LRAx@H`@CXDd@C^@PCXQFAXBh@GHEN]DCF?JPBH?JEZ?FDLJN^R^BPFLHDRERVVL^H\FdADLJJJ@PEJ@F@JFFRRTHd@PXBPFLDRLd@RPHBHLVHTR\l@LZD@HENHH?Nb@AL@DPVj@`@Jb@TT
14556641,46,광명교-안양교,7052,26825,0.76,0.4,37.485234,126.872963,37.491953,126.871394,q`mcFi{pfWo@HQJSh@EVS`@Gj@aAvAOXk@v@aAx@AJI\@NCLFT?JOh@Ih@@XDTCRGP[\CJQXOLWl@Cp@CL@JA^DRCn@CXBXCPQ`@Ux@?d@KvAFJ@^JZKl@Jj@En@Tp@BRLV?D
21788484,47,안양천(철산대교to광명대교),7009,37538,0.98,0.3,37.475897,126.877672,37.484057,126.873612,mslcFsxpfWLTJXNPj@\ZVVf@JJJNh@jAPTRPXLV\JHRHj@d@LDHH\j@LF@FFBDLVTZj@LN@FDDBHl@b@b@`ABNAd@
12075113,48,Ohgeumgyo - Shinjeonggyo - Reverse,6975,35191,1.05,-0.0,37.507729,126.874675,37.515648,126.880827,cfmcFioqfW^z@v@~@XT|AxAr@t@HNNNhAd@b@`@\NfAv@b@j@ZVPFJH@HGpAMRUPXCTr@LPJXTTd@XZVVf@JJJNh@jAPTRPXLV\JHRHj@d@LDHH\j@LF@FFBDLVTZj@LN@FDDBHl@b@d@hA?h@Ed@
24264946,49,TRB - 인왕산 편의점 대공,6904,16591,0.48,20.4,37.57832,126.961895,37.580821,126.958076,oxlcFw~qfW`@j@@FZVLNx@Zj@LRAx@H`@CXDd@C^@PCXQFAXBh@GHEN]DCF?JPBH?RERDTJN\Pf@FPFFFDRERZ\Rv@FdABHLNJ@PEJ@F@JFFRRTHd@PXBPFLDRLd@RPHBHLVHTR\l@LZD@HENHH?Nb@AL@DPVj@`@Lf@l@l@n@f@NRn@j@j@p@d@v@~@v@\^PJ~@nAj@`@`Ab@NPTFDHL?FDJVZXJRR|@NZ^PJBHADDD?@VBJPJH?FBJJh@NX`@p@f@L\BTHXH~@R\F\Rj@RLR?JAPDHF?t@Jd@Bd@^x@DT?\F`@Ep@@XH^Bd@Lf@Jp@@JIxAFhAAVFV@h@JTb@\NXf@f@Xr@T\Fj@Zv@FXLhBR|@Vd@R~@Ct@YnAOdDGl@DpAL\@JIb@Cp@Gj@H~@HV?ZC^CTOd@MnAGPSzAW|@E\@LHBNBFLC~A@RHVB\MTKJ[AMF_@hAEP@HBFj@l@BD@LAf@BNHJNFBHBBE\?PDt@?h@D^Eb@EJGO?WCS@y@CoADIj@g@XaAb@{@F_@CYOQSe@a@YIMMm@Hw@Ce@QOYQGQ@UZi@FUVmCNk@RqAWgBF{ADi@Qy@EcAZsCFgANeAB_@Gg@W}@Q}@GkAGi@YaASa@M}@Qc@SWo@gAIUMi@Yq@EaA@g@?y@_@_BK{@AYBa@Gs@?_@G_@[}@E_A?s@EQMKWCQOW{@U[e@mBIMSOc@i@Wm@YOQOSCMMS{@g@?[OMKE[Ss@UYKWKAGMoAq@uAmBO[UU_@Ma@[m@}@m@g@c@i@SMa@OKIq@}@Ma@k@i@EQIQe@OS@QHS@GCCGE]GMKm@O_@[a@Io@y@gB[a@Q[GEQW]O]]M_@Ee@I_@KQAIYc@?SCKSMe@EOOQa@?g@OUECO@KHGNWJSCQKE?[F]CW@[EWFu@?KEu@Kc@@cAMGGQGk@a@o@GWB
26829641,50,성내천 올팍공원옆 JS1,6623,65578,0.91,0.1,37.523934,127.12708,37.524424,127.117533,shncFcvofWZjANTVNHJ?TF^V|@@f@?~ABHNPHXBf@C^G^?ZLf@HdAEn@@TANDf@@^Mb@MJGNE|@ITAR@LCJ@`ATx@?JENg@PSR
10794949,51,R 보라매공원 1바퀴 0.6Km,6301,415509,0.63,-0.1,37.493116,126.920122,37.49311,126.920145,ixjcF}epfWRLLRFb@HXH~@R\F\Rj@RLR?JAPDHF?t@Jd@Bd@^x@DT?\F`@Ep@@XH^Bd@Lf@Jp@@JIxAFhAAVFV@h@JTb@\NXf@f@Xr@T\Fj@Zv@FXLhBR|@Vd@Rx@Cz@YnAOdDEb@?Z
5597616,52,The Scream (Namsan Tower),6171,14673,1.14,-10.4,37.551131,126.990413,37.55219,126.982507,u}kcFs`ofWNC@EHEDO?UF[AUNe@@ME]Qg@Ka@IWKOEe@Ii@@IMo@?w@Je@Gw@Q}A
21788497,53,안양천(광명대교to철산대교),6081,40160,0.96,-0.3,37.484019,126.873614,37.475869,126.877668,crkcFc_qfWXTNRx@v@`@d@h@|@z@p@\^PJ~@nAj@`@`Ab@NPTFDHL?FDJVZXJRR|@NZ^PJBHADDD?@VBJPJH?FBJJh@NX`@p@f@L\BTHXH~@R\F\Rj@RLR?JAPDHF?t@Jd@Bd@^x@DT?\F`@Ep@@XH^Bd@Lf@Jp@@JIxAFhAAVFV@h@JTb@\NXf@f@Xr@T\Fj@Zv@FXLhBR|@Vd@Rx@Cz@YnAAh@IbAAt@
5268007,54,안암교-보문제1교,6014,87327,0.19,-1.1,37.582161,127.02252,37.580663,127.023343,mskcFk`qfWRTn@f@NRn@j@j@p@d@v@~@v@\^PJ~@nAj@`@`Ab@NPTFDHL?FDJVZXJRR|@NZ^PJBHADDD?@VBJPJH?FBJJh@NX`@l@b@HLTbAH~@R\F\Rj@RLR?JAPDHF?t@Jd@Bd@^x@DT?\F`@Ep@@XH^Bd@Pn@Hr@
14556634,55,안양교-광명교,5996,26620,0.74,-0.5,37.491776,126.871517,37.4852,126.872989,cimcFqozfWLAHD`CBJHB?PCXAXKt@AZGr@APCN?VGj@CJC`@AJEN?\Gl@CFEl@AFEx@AHEV?\EP?`@GZCHCB@`BKB@BAv@@JDN?B@DAf@@NBd@BB@JAv@@B@RAl@FdAG^D\?JEB@P?d@GR?n@K`@AhAWTALGH?HCNCxAe@VKb@MLGBCPAf@WNEBBd@GNGPSD?FE^BROb@ORMF?h@Uj@KBEJARKD?RIBERIhAo@BE^Qn@e@hAq@JCb@[RGXSt@[`@c@PIF?ROPGTQTYLCNMLAPI^[ZQRGHIVIT[\GFGF?x@m@r@a@r@i@LEVOx@i@dAk@@EZQREBE|@c@j@[HAb@U\CHEJ?b@Kn@YNABENA~@YV?BCJ?LEJIp@WNALGF?FCF?`@IRGTOf@GLGH?n@OH@HAHG@GIu@E_AIEKBEFK@KF_@Dq@VWDIDGAIDO@w@Zo@H{A^[LO@g@\CEQ?[HM?_@L[@GBq@HKFe@Lm@Z{@p@G?MFGFc@RADC?UPABGBYZ{@b@CBa@PGFYNWPC?KJs@`@YTc@RIJOHMJGVOBS?OFO?SEUB_@XGJCR[^WLSDa@XYTM@GDgC`BC?MJG@WPi@RcAr@aAj@QF[To@Xk@NMHYFIDK?GFUHq@NKFYFSHG?g@Jo@VUBOJK@UJq@PADO@MFG?UNSDG?MF_@FMFY@c@NiAFMBa@BC@KAGBW?C@MCI@CCe@Jk@GCCg@GSGI@SAUBCA_@?CAQ@KCI@OEa@FEAGBm@C}@RU?[DGBK?KDCCw@By@H]?SFY@_@Jc@?CBCCODGASBW?YBOBo@@KDU?]F{@BIDY@KDQ?C@W?EAA@CAO@MAC@UAKEI@MAOFUIG?m@WGDCFCj@G^El@
5267991,56,보문4교-안암교,5908,86730,0.17,0.0,37.583721,127.021693,37.58232,127.022411,ggmcFatzfWb@Jb@AjA?pAGzCStAE|BQdCObAMbBOnAG|CD`DLh@Ch@@b@ErB]f@Cb@KzAMjA_@d@W^Of@Kd@U`@Ob@G`@OhDaAvAs@lAw@xBiA~AsAhBs@b@U`@YXg@x@y@dA]l@Wd@BVe@Z_@b@Od@Y|@w@dAe@^U
34371190,57,Cheonggyecheon Bicycle Path,5787,27481,2.39,0.1,37.556142,127.051439,37.572107,127.037617,kdncFik~fWNDXDPCVQTc@Di@Io@Mg@[gBQi@Ua@SO_@@c@RKRGPC`@Df@h@zDRf@XT
33840170,58,Baekseok Straight,5669,6667,0.6,0.2,37.635719,126.788848,37.639449,126.783879,khjcF{i{fWaA~@e@R[HWb@MFmDlAgAn@QRu@p@SFaAp@aA`@[XgBn@i@J{Bp@{Bf@eC`AeAd@m@Pg@JiBT_EPe@Hc@Bi@HiAScD[_AEcDRqBF_CTuBLaAJqADuBNc@?e@EsADoAI
19165318,59,경복궁_시계방향[2.6km],5453,27899,2.64,-0.0,37.576301,126.979405,37.576423,126.97941,ohocFca{fWNGb@ErAHdAR`C^j@T`ATv@FlAVbAN`B`@jANpF`Ah@FTAXBNKv@Y^Cv@?LBBD@XBFNDZ@v@?t@DpA?FCJKXi@FAH@LHRx@DJD@LBn@Cv@Bp@PVLhA\f@JZ@PFn@NR?FB@FBEJEND^B`@AFC\?x@KR?n@G\Gz@Ap@K`ACNGdBEd@BP?PCVKbAG`@SPOLCb@DNF~ACv@DNDv@?x@H\CRGRHz@Bv@MhAGXEpAEXCv@Wt@Q^O`AWp@W@G?WHG^Cl@AXEj@[z@UXOnCq@l@c@VGp@e@XIl@YNKNGTWx@Mb@_@j@[PEP?h@]PGD@RYh@_@f@}@He@L[JEFq@AyA
11290424,60,둔전~탄천운,5249,39597,1.95,0.3,37.428524,127.117615,37.412071,127.123106,udkcFup~fWFcANm@\gB\}AdA}Bh@cANk@Ls@@g@MsAe@{AD_ACCG?GVKNg@j@yApBW`@KZwB`C[p@WTiAvAs@bA_AdAgAz@m@X}@ZcAN
18922738,61,[Tom's] Inwangsan Stairs to Buam,5220,11172,1.6,-11.8,37.584812,126.958006,37.591794,126.966419,kdncFik~fWNDXDPCVQTc@Di@Io@Mg@[gBQi@Ua@SO_@@c@RKRGPC`@Df@h@zDRf@XT\F\GRSPk@@_@u@}EQa@KKQG[?IB_@ZO`@CTn@pELb@HLFFRF
25604141,62,하늘공원+노을공원 둘레 1바퀴,5158,31119,5.88,0.0,37.566041,126.891248,37.566031,126.8912,kdncFik~fWNDXDPCVQTc@Di@Io@Mg@[gBQi@Ua@SO_@@c@RKRGPC`@Df@h@zDRf@XT\F\GRSPk@@_@u@}EQa@KKQG[?IB_@ZO`@CTn@pELb@PTRFT@TANIDEJc@@WG_AESC_@S{ASk@MOSIWBYHGF]l@?LHf@d@pDRb@LJVJ
11678790,63,OhgeumGyo - Foot Bridge,5033,42594,1.24,-0.0,37.509847,126.872781,37.518435,126.879274,kdncFik~fWNDXDPCVQTc@Di@Io@Mg@[gBQi@Ua@OMc@?c@RKRIVAZDf@h@zDRf@XT\FPCJCRSPk@@_@w@cFO[KKQG[?IB_@ZO`@CTn@pELb@PTRFT@TANIDEJc@@WAc@Ko@C_@S{AOc@QWSI[DUFGF]l@?LHf@^|CLf@JNHHZLR?PEVMP]Hg@Gg@Kg@O}@Iy@Ia@MQYWUCUDYTKNMZ?LZvCVvATTPH
917413,64,용산동2가 산1 3 Climb,5022,14933,1.09,11.7,37.5522804,126.982212,37.5510265,126.9892332,kdncFik~fWNDXDPCVQTc@Di@Io@Mg@[gBQi@Ua@SO_@@c@RKRGPC`@Df@h@zDRf@XT\FPCJCRSPk@@_@w@cFO[KKQG[?IB_@ZO`@CTn@pELb@PTRFT@TANIHOHc@?c@Gi@ESC_@S{AOc@QWSI[DUFGF]l@?LHf@^|CLf@JNLJ\JL?PEVMP]Hg@Gg@[eBQuAOWYWUCUDYTKNMZ?LZvCVvATTPHPDNAJCZQRa@Dq@c@mBSk@?OKc@M]UOUCSF_@`@I`@Dh@h@tDHXPVXJ
33377227,65,중랑천 좌안 상행(겸재교-중랑교) by 마부작침,4944,44142,0.84,0.2,37.585492,127.074105,37.592409,127.070966,k~mcFk|~fWD?DE@IPQBGB?JETSDg@FYCCWmAKGEGGAw@EMFa@b@SHQL]^q@~@Mr@B`@Vl@PHf@BJDNAVEPMTGJGLU\WNWXSLs@@w@?GEKAUKOEAMBMQGBECOSCDEAKDOTGBMNG?STIB[TGNOROLEJYXIRAJXjANL\FJATB`@Ih@[VId@g@DALMRGL{ACQCGOII?CC[m@UC
22661022,66,TRB - 고구려정 다운힐,4808,14634,0.71,-8.8,37.565318,127.102413,37.559674,127.101517,a{icFetdgWD?BEFBJCIDM@B@BEFJBCPa@D[Te@Fy@Eo@?c@@_@DYHQPIT]CGNYJm@V_@HYLUAE\c@PMHWFi@K{@M[@S[q@Kq@G_AGWH}@A_@@SJ]AOL_@Bg@LY?_AQ_@[MKAMW@ECEa@_@?GPc@KSCCI?_@B?GBG^[PAJBHHF?RGRWD]Na@H[Be@E[IKCA?]KYCQAGFK@OAO
5267911,67,바람마당-보문2교,4781,61682,0.15,-3.0,37.589637,127.017845,37.588647,127.018739,sxjcFs{agWN{@@OAQSw@@IP]Li@TYTcAT]Jg@TWXgAD_@?UFMLGHI@OEo@?QFM@OQg@?QLY?KEOAQNcA\y@f@_@@]FOD_@Zc@Zm@Vu@R]Jm@Xs@Xa@LGRYXYNIb@[HMJs@Lc@h@m@H_@j@iARo@XQHQGk@Tk@DW?O@KZc@L_@Ec@Dk@Ag@DGJ_@?YIe@h@uBVi@@MFG
7481739,68,Yeongdong bridge (west side),4776,10235,0.6,-0.7,37.52769,127.055597,37.532587,127.058375,mzlcFovfgWD`@JD?JCBBFE\St@Kv@Dd@f@nADRVr@ARHx@A`@ETAfAMh@Ab@`@pBDLBTO~@WVQZCNKPATWvA?PBZMv@EHE\Aj@Vn@Bd@H\@TCh@I\w@dACL@HM`@AVBD?FNj@E^J`@AVJXJNh@d@P^f@x@CZBXCLEvBKTGVQTLV?d@ERCDE?YZM@o@v@CZG^MZEX@HBDDNJHLPPZNNHTCTMh@OJINAJLp@Kz@@d@]p@DDXc@CBE?IHYf@C?J]_@|@IZEHE\IRU`@WTUJUF]@UCOFGRCj@Fr@A`@DZA^G|@OXS`AAXPXXx@NAF`@Ja@JlBP~@@\WhACb@@VFNj@d@VXDNJBXTDHDl@HTTFr@Xd@b@bATTL^n@RDl@r@T\?\FTAf@LVDPLXLt@?LAFI@BTMr@?b@QdAKXGhBFRXf@RZNNFN?TTv@?`@BNG\KPK?EFKBABI?KJODOCWNUFSGa@JGEm@Ag@JMG_@Eg@HIG]CMEGFY?UH
5408100,69,한강철교 > 한강대교,4699,16887,0.47,0.3,37.52209,126.955279,37.520819,126.960318,kamcFspagWn@ORHN?NDh@GXBJFLANEZCd@BXAXDFA\KLMNBPAHKD@ZQNEBCBIBWCa@O{@@MOa@[Y?@CIQg@KMG]F{ANe@LiA?UTcA@YMa@E_@KOGYECEG?MB_@ISDSESIQi@o@m@[Ue@_@Qw@SOOEAGIKI]GKKQEOWKo@GAMOQSKQSUi@a@GQAe@@OTu@@k@Eu@Oo@Se@Mq@m@?IaBBMNc@Hc@FI?UHmACO@e@Io@F_ANSVAT@TCx@a@Xi@FS@a@\s@NOP[LKJE?CGGWd@e@k@fAyA@CIu@H]T[Hi@EU]a@GOMMUg@BQTs@@a@DQb@m@HGPC@GPMBE@GFK?o@IMRYBSJOB_AB]A_@BO?w@g@q@Oe@k@c@MSEQAUGi@Ai@Oi@BKCG?I@QJOAOx@eAJUDWCo@CWES?a@S[CU?g@@UHUFg@?o@DYT}@B]FKF]PUPUNg@B[AWMc@UmA?k@@SHOAc@?[DWBm@GSAcAMUIc@Oa@[q@G]Du@Ro@Hw@DKAGA@IIG[DQ
21760219,70,[돼지런] 연세대학교 대운동장 트랙,4567,80267,3.0,0.1,37.562825,126.933436,37.562572,126.933189,ispcF{sudWcD_DsB_BWK{@WmDaAq@Uy@a@cC}A}@q@y@g@cAcA}@s@qAiAaAw@w@y@
12158666,71,순대타운,4471,40921,0.85,-0.5,37.484071,126.926072,37.48957,126.91998,mqqcFstwdWC]Ke@Uc@CWWu@e@w@E[@_AMU][Ym@@]CcAMe@VWUWe@GEKBMCe@@wB
8356973,72,잠실보조운동장 400m,4470,862503,0.4,0.0,37.517032,127.070273,37.51703,127.07028,awrcFqjxdWN_@AKNi@JQL]FkAK_@Jq@Ca@DSjAo@ZERIZU\QZc@XITHPJABJEZFBTb@TBh@d@n@n@l@`@Nd@BNCP?XDLbA^MdALv@@ZN
18725216,73,SF 10km Finish,4460,21739,0.81,0.8,37.52093,126.961238,37.517589,126.96933,uascFgnwdWJe@d@mCVaAHg@No@Fi@H[BY@s@C]KY_@[GKEAo@Bg@j@OBGACEAe@Bi@D]N]HWXUPWLc@@IH@TPNFL?L[vBYz@g@FG\YTg@T_APSXe@Gq@AcAD_AFYJIX]d@OLADCD?PG@GFGXOD?HWNCFSH@JAHIHDT^d@FDDF?RPJv@HXLRX^HFLRPJHNF@PPDFBBHABHFBN@JDJALD`@MH?b@FPAB@b@BND
20824762,74,서울식물원 습지원(CW#01),4389,33526,0.72,0.4,37.572698,126.833331,37.577942,126.834803,{_qcF}_vdWSYOe@Bm@Kk@DcATg@Eo@@uAAKLSB]Py@HKJCNo@DACeAMYDi@@y@c@QMKeAa@g@G]Yi@o@}@{@o@aACU
19776115,75,Courtyard Seoul Botanic Park -> Magok Batminton Court,4361,112546,0.6,-0.1,37.567152,126.830128,37.572218,126.831796,morcFuhudWSHHMACRJNKJ_@X]FW@OXSZ{@r@q@b@q@`@Ob@K\WDSEO?MBeACaAIg@w@KGGCO
14164266,76,일산 호수공원 [전시관코스 by HOya],4332,52983,4.83,0.0,37.650011,126.771223,37.650051,126.771246,u|scFcmwdWLc@Fi@c@c@]Ya@USWOg@Kk@@O\{@b@qAb@_AR{@Fk@C_@Fm@RkAOsB
12104629,77,Seoul 10kmer Hill 2 up,4299,16538,0.5,3.4,37.573744,126.883298,37.569875,126.880926,oqpcFo`ydWEX@f@K\EDSAYH_@CUMYIa@?[EW?UDg@t@_@NCH@FEJWFMHQREJ_@RALKHSVM@GFWJQ^KZALKBKFAD?HQ^?FU?IB?LIRMXQJEXOJOEG?QMa@CKKQ?QCI@MC_@TQAIBIJKBSJQNEJi@d@MDOAMDQ?KBIAQMW?WAA@MEM@SCIGACWKOOQ?OOWC
11467937,78,한천교 → 당현4교,4263,42318,1.72,0.2,37.624839,127.069799,37.637661,127.059526,__scFaludWPECOBKVQDKJK?MBEZOHIFAF@VAJHN@JCV@LK?ERFHHF?DCH@HGH?PJBT@?JR?XDH@@FA@FH?BFTP@HDBXCPJLVRl@LL
20777220,79,[처음처런] 질주 구간,4241,50596,0.73,-0.5,37.652951,127.054659,37.646141,127.056351,kqscF_hvdWOJW@k@MUAOG{@?mA_@KKKEc@AUI[@e@OSOi@E[BUAOHGRk@JCDOJS@CJKJSCQHEHOA[UIOGEOBIAICIKGAGBQNYf@q@|@i@`@EHG?MHSZKTEXSb@?JC@CPM^QR
7543816,80,[휴레] (동)월계1교-월릉교,4223,41795,2.01,-0.2,37.632826,127.063849,37.61668,127.071833,aspcF_o}dWXKn@_@n@s@jAaBRQb@MJK`@m@b@y@Vs@Pu@dAiCDM?UEIU@OEc@Wg@MyDwASEI?ULiAdAe@\gCfCg@j@u@j@MLO`@Mt@Gh@?ZJ`AL`@NVb@d@b@Tl@HfAFf@^HDH@VEt@[r@e@NOz@yALKZKTSNQv@qAd@cAL_@R{@l@yADUEOaCm@sBs@kAe@MCIBYL]Re@b@iCrCiBtAONUZQ`@ETGd@Ax@Ft@Xz@j@p@f@Vp@LdADh@\NBVEx@UVM`@_@|@yAPKf@IFI`AoBnAoDh@qAD]GSKKeCm@iA_@uAk@QCSF_@TgBfBkBdBq@b@g@h@SX]z@Qz@AX@p@BVPp@LVf@j@d@XRD`A@ZBPFj@ZJBRCr@W`@Wt@cA^u@PO\MLMt@cAz@mBVw@t@yBFUCMGCMFMAmCkA_D_AS@g@`@k@r@oDxDe@^i@V]`@IPK^Eb@?`@FdAPl@JRl@n@j@Vh@Jr@?v@b@P@TE`@Oz@m@vAiBHE\APCTSz@}A`@iAv@gCXu@DSCSGEU?MCYKqAk@kBe@cA]U?e@ZyBvBuA`BaAr@_@TWTO\ERKvAJfALl@N^Z\b@Vl@LfABTLVVNBN?^O`Am@l@i@x@cAn@Sf@s@|@iB|AaFDQ?QIQS?[G_EoAk@Me@QSAKDYVgBhB{@t@sAzAu@h@a@d@QZGTObADx@Lp@HT^f@VTXP\JRDjABt@`@\A^INGb@WTQLOZa@b@w@LKd@MROr@kAZq@~@}Cj@aADU@GKK]AME}FyBi@KOBWLeA~@wDdEcAv@STMXI^Gj@Al@Dj@Hj@HRl@v@NJ`ATfAFLF^TVDNAVGr@a@~@y@r@gANI^IDCf@s@rA}CV{@t@sB@MEMg@?yAa@eA]iB}@WKO@YNgBjB_Ax@oArAmAdAWb@Sh@I`@Eb@@b@Fn@Vr@V`@\Z\NXFrAB\PRPJ@f@Gh@UVQdAmAd@q@p@QV[bBkDnAaDF]AQIGk@?WG}BaAoBs@SCO?YH{@~@m@h@m@n@gAlAe@`@eAfAc@p@IZIn@@|@F\HT\t@LP
12651442,81,일산호수공원[휴레],4204,51451,4.81,0.0,37.657529,126.766067,37.657139,126.766407,ydtcFgabeW`Ap@xAjAx@f@`@^BDb@Px@h@xApAh@p@@FADNP`@~@Vt@`AlENrAN|C?p@An@CaBGgAJlC?^y@fI]l@Ob@EHEB@FADW`@u@j@EH]\iAxAk@h@EI[E_@Qo@w@sBwAeAo@q@i@ISIGa@Qy@i@yDqB{CwBEMPFRRd@XOIIW_@a@GMBCR}A\_Ab@gB`BkFXeAf@kAk@|AI^P[Zy@V_At@oBzAkF^gA^u@
16355190,82,뚝섬대회10K,4132,5309,10.01,-0.0,37.52815,127.070694,37.528165,127.070631,qhpcFkc~dW_Bm@m@Qi@Wa@OSCQBQTqAnAs@p@SVSb@_C`BQTOT
36016462,83,400m인터벌(도림천오거리방향),4081,27815,0.41,-0.1,37.498252,126.893674,37.50182,126.893309,crtcFkjbeW^RjAx@V`@FF`@D^PvAdAdAr@v@d@~B`Bv@b@ZXVVz@b@tA`Ar@l@n@v@v@`BTfAPd@R|@\~BL~ANbC?hACLBn@UpCMr@U`Ae@nAYh@wA`B}BxB
6931298,84,△북한산: Baekundae Summit Push,4073,6595,0.29,11.2,37.657673,126.979481,37.658648,126.977962,espcFmo}dWJ?RKRQRYjA_Az@cALKd@QLOp@iAb@aA`@eAXcAh@qA@QAIMMo@Mk@Si@Oo@KyBs@]Ci@\sAlAsBzBeB|AWZQZM^ETGv@?TJr@J`@Pf@d@d@p@XZFz@@NFb@XPBXCjAg@TSrAoBNIf@GTSv@wAXs@\eAjA{CBWAKKE]Au@QoFeBQ?g@X_@XiBlBu@|@iB`Bc@f@Q^CRKfBHx@HTR\VZPNr@Zj@Jr@Dl@XP@TE\Kv@c@`BsBLKd@MLM`@s@z@oBt@yBj@sADUCKKE]B]EoEeBy@WK?YPu@j@oAhA[Zk@v@y@x@s@f@g@n@CJM~@GhABZFb@J\HLf@l@XPf@L^Dl@@TJf@^PBPCLE|@k@z@cAZi@PUp@UJM|@yAd@cA~@wC\}@BSGOIAY@_@EqBw@_DaAO?c@NUPo@x@eBdBuAfBm@b@OTQ^GZKhALvARh@FJLRZXd@Tp@Jt@Bh@\NFZCj@[x@q@rAkBNI^GHGX[\m@j@uAx@aCf@kAFS?SEGWAw@M
5408057,85,한강대교 (북쪽),4043,15356,0.71,-2.1,37.514463,126.956963,37.520082,126.960672,copcFur}dWj@{@Pa@HE^?LIN[hAwBv@sBLULg@Vk@BQASG@OJM?KIQCqAa@mBy@_A]QEa@XcA|@a@d@y@p@[h@SLk@l@_Ar@OPMVKh@GlABp@DXH^L\f@f@PJb@JvA?LHZ\N?XG^Or@e@l@q@RYN[LOLEd@AJEHKpAeCt@yBr@kBBSAIIAYLMAeAa@UKkAc@a@Ky@_@a@KO@KDKPeC`CSVSb@_C`BQTYf@Ij@I~@@`@Fd@Zt@JRVVb@TTFvABJFZ\HDDA~Ai@x@w@v@mAJK^INABCHQX]R]Ri@d@cAp@oBXs@DY?SCAUJK?_Bg@aBo@a@Ku@][CeAz@mAlAYP_@h@c@\_@^s@j@e@f@IROt@Gz@F~@XbAVZf@^`ANd@ER?JF^b@H@HAhAc@\Wf@i@~@sAJEb@ENOf@y@J[T_@t@gB\kAZu@BWAOKASNQ?kBs@kA]gBw@IAaAx@eAbAe@^e@t@g@^o@n@]Ra@b@KTSlAAt@Db@DVNh@PZRXl@VVFZ@d@AP@JDd@b@PAtAi@NKNMr@aAZi@NGd@GfAgBRi@T_@f@{ANq@`@s@BSAYI?WL]GmCy@kCcAIAQLaBhBk@f@o@~@s@r@aAp@YZIPKVKp@El@Dh@Rv@JTd@n@RLd@Ld@H\AP@NHTVNJZSz@_@TQl@i@dA}AHEZ?NKnBmDh@mB^}@BOCWAAI@IHC?UKkA[]OSE_@Si@SyA_@IAWLa@f@k@d@aAbA_@t@a@Tg@d@]RYVUXQn@QlA@b@Lt@HVN\VXTPVJ`@HlABLH`@\l@Mz@]b@c@nAgBh@MFEx@mARe@PW`AsCVk@Ne@B_@CEc@L[E_AWmAg@]KQKo@Qe@SIAC@YX[TUZmAdAY\Wd@iBvAa@b@U^Mn@Gj@@~@D\Rr@Zb@XRZLLB|@BZDPHXZJDjAm@NC^Y^_@`@s@T]NEb@@LIz@_BN_@P_@|@gC\w@HW@UCM_@NOA}Bs@aDkAOCu@j@k@l@OTs@l@KJIVMNq@j@m@l@g@^W\IVQtA@h@Dn@Nd@^h@`@Vd@NTDl@AN@p@f@DBF?tAm@\Yb@e@d@u@PSLGT?PETYd@w@hAgCTm@FU`@kADWCUGAWF[Cu@[[E]O{Ag@qAg@YNUZeCdCQVi@b@mApA_@\OVELOnA?r@Jp@J^HLNRTP\Pj@JhAH
18542598,86,일산호수공원 5K LIF코스 ,4027,47098,5.02,-0.0,37.660946,126.763617,37.661064,126.762721,copcFur}dWj@{@Pa@HE^?LIN[hAwBVk@^gANYJc@R_@DQ@Q?IECSLM?KIQCqAa@mBy@_A]QEa@XcA|@a@d@y@p@[h@SLk@l@_Ar@OPO\Kj@E~@@XDp@Pp@JTb@b@PJ\J|A?LHTXHBd@Gd@Sl@a@t@{@
13834970,87,삼거리-고구려정,3967,10405,1.96,-6.2,37.573179,127.101216,37.558369,127.10239,ympcFmt}dWPa@FGb@ALIN[hAwBVk@^gANYJc@R_@DQ@Q?IECSLM?KIQCqAa@eAe@sBu@I?]VcA|@a@d@y@p@[h@SLk@l@_Ar@OPO\M~@AdAH~@Tt@p@l@j@PvA?LHZ\H?^G^Or@e@l@q@RYN[LOLEd@AJEHKpAeCt@yBr@kBBSAIIAYLMAeAa@UKkAc@a@Ky@_@e@KWFKPaCzBW\O^GH{BzAQTW`@GZKfAAd@N|@`@z@VV\RVHl@Bd@?LB`@`@HDb@K`A_@x@w@v@mAJK^INABCHQX]R]Ri@d@cAp@oBXs@DY?SCA[JUEcBk@mAe@a@Ko@Y[GUJqAhAq@r@YP_@h@c@\_@^s@j@e@f@KXQ~@Cj@F~@XbARV`@\NFz@Ld@ER?JF^b@H@TEbAc@VSb@c@bAyAJEb@ENOf@y@J[T_@t@gB\kAZu@BO?SACGAIBMJQ?kBs@kA]mBy@IB{@t@eAbAe@^e@t@g@^o@n@]R_@\MZSlAAt@Db@XfALTRXl@VVFZ@d@AP@JD`@^HBTEpAg@XWr@aAZi@NGd@GR[r@kARi@T_@f@{ANq@`@s@BSAYI?WL]GmCy@oCeAE?IDYX
12104632,88,Seoul 10kmer Hill 2 Down,3962,15305,0.39,-6.5,37.570598,126.881535,37.567996,126.878834,{zscFsnjeW\Lp@Ll@BV?x@Of@OZSV@JQ\QrAbADJ?DK^DJfAz@`@VX\F`@A\BDrAnA`@l@r@zA^\Hh@GVAt@`@vANp@@jBL~AAf@Ih@Sz@OXMb@SnAMXc@n@[j@Up@I`@s@lEM`@{@fAKFs@GoAQ]FuAdASJQIm@m@y@gAg@e@QYQSEM_AoAISk@s@o@oAs@{@w@sAMg@Uc@MwASqC@i@Cq@[oAEY@I\}APoAr@uHDIz@[Xe@NMN?XERILi@
38059562,89,Yangjaecheon Mile,3897,21416,1.57,-0.2,37.456357,127.020567,37.466842,127.02925,swscFmvjeWg@@o@HQFOLCHIVCRB^Jb@\\ZDv@Eh@G`ACLGLIPYH_@?UI_@Ua@c@OQ?eAJ
20824793,90,서울식물원 습지원(CCW#01),3807,25943,0.71,-0.3,37.577942,126.834803,37.572694,126.833318,wwscFopjeW`BKZUP_@Je@Ce@O_@WWa@G}@HcBH[JWXKb@?f@N`@VX\L|@A~AI^GTYNc@Bg@Ec@U_@]Qa@Aa@@cBL_@FYVO^Ad@Dd@T^\L^D~CUXQP]Fe@Cc@O_@YS_@IeDV]JUXIb@Bd@Lb@XV^JdDM\QT]He@Ai@Oa@UU_@IkDN[NU^G`@Bh@N`@ZV\H|BI^C\MT[Jc@@c@Kc@U]_@M_A?eBL]LYZK`@?f@Ld@VX\N^@`CO^IV[Le@?i@Ic@W[a@Q_@AgCR_@LU\Ib@?f@L`@XXZJ^?~AK\A\IXWLa@Bg@Ga@Q][S_@AeDPYRO^Ed@Bb@P`@XT\J~BO^AZOT]Je@?g@Ma@SW_@M_AFcAA_@D_@JWVM`@?h@Hf@R\ZN`@B`CM\GXYPc@Be@Ec@O_@]S_@C_DP[PUZId@Bh@N`@ZT\H~@?bBKZMT_@Je@Ak@Ma@WW_@M_AD_AJ_@@]NYXIb@?f@Lb@VX\J|BG^C^GTYNe@@e@Gc@U[[Qa@Aa@DcBF_@DWTQ`@Cf@Hd@T`@\P^@^E~AG^EZWL_@Fe@Ie@O_@[Sa@CgCN_@FYTQ^Cd@Hd@T^\R^@^EbBE^GXWNa@Bg@Ge@S_@]Sc@?}@HaAB]F]PQ\Gd@Fd@P`@ZR`@H`DQZOT]He@Ag@Oc@WUa@KeDN[JUXK^@d@Jf@TXZL^B`CK^IXUNa@Bi@Ic@W]]Sc@Aa@@cBJ_@JWTM`@?f@Ld@X\\LdDG\MV]Je@?i@Oc@WU_@KcBDcAF_@LUZId@Bh@Nd@XV`@FdDK\QRa@Fg@Cg@Qc@[U_@EcDN[LUZGb@?f@Nb@XX\L^?^G`BE^IVYLc@?g@Ic@W]_@O_A?}BRYRQ`@Cf@Fb@R\ZT\FzCM\OR]Je@?g@Oa@WYa@Ka@?eCP[LUXKb@Bh@Lb@VV\J`DM\KVYJa@@g@Ic@U[]Qa@?_BJ_@@_@DYVO^Af@Hd@T`@ZP^B~@I~AGZQP_@Fg@Ce@Q_@[W_@GiCJ]D[NU\I`@@d@Nb@VT\J^?~BK\GXYLc@Be@Gc@S]]Sc@CaAD}AN[RO^Ef@Db@P^XT\Fz@A^E~@CZIV[Ne@?g@Ic@W[_@O_@?aAJaAB]DYRM`@Ef@Hd@T\ZP`@BbBG|@IZSP_@Fc@Cc@O_@YW_@I}CR_@JWTK`@Ab@Jd@TZXP^@xCQXOT_@He@Eg@Qc@[U_@G_DP]JUZIb@Bf@Lb@VV\LzBI|@GXUPc@Bg@Ie@S][U_@A_@@aAJ_AF[PS^Ed@Bd@R`@XR^F~CM\OVUHe@Ag@Mc@WY_@O_@?_@B}BTWTO`@Cd@Hb@V^ZP`@?`CK^EXSPa@Bg@Ie@U_@[S_@AcDT[RQ^Cb@Df@R\ZR^F`DOXOT_@Fe@Cg@Ma@[S_@KcAHaBB]JW\Gf@Dh@P`@XT`@H`@?`AE`AI\OP]Hg@Eg@Qa@[S_@IcDP[LU\Gb@?h@P`@ZT^LfDMZMT_@Hg@Ci@Oc@[Ua@IaAFaBD]JUZIf@@f@Rd@ZV^H^?`BE^E\MT]Jg@A_@Qm@[U]Ka@@_@D_BF]HWVKb@?h@Nf@VX^L~@?^E~@E^EPOTi@Bg@Ie@OYa@U_@AaDR]PQ\Ef@Ff@R^\P\D\?|BM\OXg@Fg@Eg@O[a@[a@Cy@BmBLYROZGn@Fd@T^ZR^D\?`CMVQNWJq@Ce@K]_@[_@I{CR]JWZKd@Af@J`@\ZTJf@?xAGd@C\GXWL[Bq@Ke@U][QYAgAB}ALUPUh@Cd@Fd@T\TL`@J~CKZMRWJk@Ag@Qe@WU_@KaCFa@B_@HWZKb@?^Hd@T\`@R^@^EvBGZQTg@De@Ig@Q_@UQ_@I_@@c@Ba@F_ABWJW\Id@@f@Vh@ZR\F|CMXITUPk@Ae@Ma@OW]SgA?{AFg@FWVMXEh@Df@Zb@\NXD~CKZMT]Jo@Eg@M[YYg@I{CJc@NWXI^Af@Pn@XVVJ~@?~AI\EZSRi@@g@E_@Q_@a@Wa@AcCLWB]LS^Ij@Fl@NXZR^H~CKZIXa@H[?g@Om@WYYKaA@a@Dy@Ba@D]ZK\Ed@Fb@VZ\Rd@DxBId@GVMP_@Dk@Im@QY[Q_@E}@@gBLYPOVId@Bd@Tj@TP^H\?d@AXE|@?ZK\[H]@g@Ic@U]_@SWCaCF_@B[LWd@E\@f@Nd@XVd@Jx@A^EbAAXIVWNe@?o@G]W[]Qe@AyCN[RQ`@Cf@Hj@PXZR\Dz@?zAI\KTYLm@?_@Ic@W[e@Q}CJ_@HYVOd@?f@
8301826,91,교대 트렉 1바퀴,3802,475276,0.41,0.0,37.491001,127.016068,37.491056,127.016122,c{pcF}ugeWR[@IBw@Qi@_@[OCO?M@i@XoBdAQPMRGNCb@BZN^VVTFb@CNE~BmA\[
26627611,92,북한산(백운봉암문-백운대-봉암문),3776,5959,0.46,1.6,37.658086,126.979389,37.65802,126.979403,untcFqygeWDDN??SRDPJRDHIXGFKJEF?zBf@j@CVOB@rBb@b@@\HTCd@DHBJJF@Z?BC^?FBNPLVzAj@\Mf@?TCNO`@Y^Qf@ALEPDL?HEF@FAL?V@HC`@_@HQRSNe@^a@Nk@DIbAkAJGdBh@`Bp@NBHGD?Pb@n@h@jBd@J?HFVb@RFNPd@PP?@CTCNBPJVEb@AJCX?FBT?RITALEDE`Ae@FAd@WFAd@Fv@XLPJF@LATb@HJHP?PEV@RK`A@PSp@WTQXMHI@w@UYQe@?SKCG{@IS?OH_@b@uA?OP[FQFEJSVGX[LGrBm@~DUFMTUP_@XFNHTRFBz@HTFHAl@X@BJFHBXTD?\QVGJGbAKPILANKX?r@SH@D@d@h@D?p@dAHRLNJ`@TZNFPb@BBnA{@k@cBIMCMMMCa@QSCMFURGHML_@?OHa@Rc@JoACMEEEQ@Q?_@LgAXaAd@cA`As@H?ROv@cBAs@DSPEdAFTGDEJElAKFGFADCLDvADVE@GLAVFFEJEf@?FGTEHGDOf@[RD\@\VZ@LDPAJEL]HEZEvAITIb@g@SyA_@o@e@m@CIBQFGH@PNFA@@@ICGAWJGFAEFI@QLS\MDICa@DIAMKo@@SG{@Ge@QMAMEO?gBNQCS@]Si@@eBMeAa@_@[KYk@y@SOCIQIS]u@s@Yk@YUCUI_@Wa@aAq@o@SYW_@GC@mAUUQUAQMKQEACCGAQBKGI?OKQCi@@WGm@As@a@YEUKKIW[Sa@KCGEOCMGG?QI_@AYKKy@kA}CSMM?OIKO[GWWCCK@OM?QMMAGEYBG?SKe@a@w@M_@?[AQGMBc@MiAGM@OCUAKYo@AGOOKAQIWSEAe@}@KGYEGEa@KKMCS?KDKf@c@DOAYEQAeAMW?MEQ?UIS@_@C[EMQUIY?_@Em@@]QUYWUa@EOE{@WSQBGCWAe@Oe@CWMUGa@YK?GEQ@WCIDWAeAU[?ODIHUFY@IEK?OBW@MAMIIAIKE?
26687315,93,청계산-(옥녀봉갈림길-매봉),3763,7590,0.75,13.0,37.432279,127.047265,37.42842,127.044205,o`tcFgeieWDPx@hAbAhATRPPLTHTj@l@NTXp@
6377278,94,Segment,3713,11246,0.67,7.2,37.567688,127.151878,37.56668,127.144764,ybtcFchieWQ[g@cBUgAQoAGy@?wAEu@Iq@Au@?SPwANg@LU`@iDZuAFODG~@c@Z]VSf@SDGZkAFMNMN?lAZZFX@b@GLGn@Mp@c@HANBjAj@JPN\DFXHtA|@b@NTXDLBh@Rb@p@z@l@~@^`AJPTPFNHZAb@HlAd@nB@`@?dBRzA?XEb@GTk@pAMp@Ix@[n@UbAYj@e@bBO~@Yz@Kj@u@|@Q\K?WGa@QOEk@EWGK?ODQJgAtAGBKCOOy@_A}AwAkAuAK[S]oAgBOc@U]IW]o@][OW
27261736,95,잠달(동호대교 스프린트) 동호->한남 방향(동호대교 계단/횡단보도->자전거길끝/노란기둥),3711,18417,0.43,-0.0,37.531782,127.023765,37.528462,127.021205,}atcFsgieWJTTXNh@h@p@PLRTL^Xd@\^fAxAZRt@jAVTRXJDPDDDT`@H@JE^[PUVQJEx@BhAR^?PCNIl@aA^wAPuAL_@Hs@F[\_Ap@kAFURoAJg@Pe@NoA@_@IaAAu@EaAG_@[oAGa@Aw@F_@?WIY_@Uq@iAi@w@aAy@QSCODWAKWu@]SiAy@][Ye@c@Wk@IQGe@LWLmBR]?y@MQ@QHMLIv@GVIH[Lw@NOL{@XKLEb@C~@E^GZOPELAtCCf@GJ?f@GZ?TGVCR`@nDJtA@rAFn@TbAHRJLDR
22050498,96,경복궁 반시계 방향,3650,16115,2.61,-0.1,37.583327,126.979612,37.58334,126.979565,gtpcFkdheWZi@DED?NH?KIWA[ECUk@OMM[a@i@GOL]XOV[J]@YRg@Fe@?s@Sm@ASBYX}AFGRs@P[Fq@HWH?HFFCf@DNOJSHCTc@BEDKDm@AWHa@LFTBLDV?jAWR@EC?CZKH@VEJBHCX@HAFEf@?HGVBRFL?JIh@EHILEDE@KRUVUF?NJ`@Hd@XFA\BHC^[n@MLG`@?HSLALKJ?NKFCBSLUEACGI@WKEMDIHCCMC?M[OKC@QOGOII@G
27261773,97,잠달(한남대교 스프린트) 한남->반포 방향(한남대교 엘리베이터 옆/파란이정표->잠원나들목 횡단보도/파란색 한강 이정표),3631,19826,0.45,0.0,37.524605,127.015799,37.52146,127.012764,chscFg|reWj@a@XEXBXd@D@@DRPF@TOLMJERALCTQFA@@JSDAN[PQ@SNq@Kk@@GHK?OHYGUAU@E?qABc@Fc@?o@Ni@?KHKPc@@ODKJu@AWFcANa@BUCiBV}BBu@Iy@NoACOB}@Lg@FIVo@@@HWZm@@e@R_ARQt@]hCm@\]h@]XGN?FETERK
21911592,98,신대방~보라매후문,3624,21236,0.93,0.3,37.485133,126.906141,37.48908,126.915312,wspcFayseWCOGCEIGEACKIMAQMEMOWOc@OQ?COM?CWQCISEKKKWSYO[KOEK@WMUUSOI{@q@BAOKCOGI_@QWE]_@GQCYEKUQEKIIOa@CY?QPg@Fq@KQ?QSc@QQ[OW_@[[SK_@c@MAGE?COGGM]CEMQCQNCDIBGPQLOFI?IHK?CB[DEFG?_@^EPKBBMAQDMEY@SCOKQAKKSK?CE[KWQSKM_@?K
13232366,99,광진교(북->남),3514,12967,0.95,-0.2,37.545958,127.109182,37.542866,127.119149,kdtcFsiueWBC@Wh@]@EZCh@?JKZa@@IR_@@]FULOLGRUDAHFRCFEXCZMFAFBNPJjADB\h@XTd@h@BPDFJZZZFJBR?JSh@E\TTVJJN
25544893,100,TRB - 나홀로나무 업힐 구간,3489,34790,0.44,5.9,37.523018,127.122125,37.522563,127.118784,idscFuqueWGFWHwALe@JaA^o@NOXMPMj@IHYj@En@IHKZIh@Y`A
18962884,101,암사고개-고덕교 다운힐(강.철),3423,10319,0.95,-3.8,37.566944,127.143662,37.568535,127.153577,{}scFyoqeWg@CkAJkATa@?
12524981,102,깔딱계단,3397,9341,0.28,29.6,37.578852,127.103203,37.576816,127.101801,e~qcFagueWb@EDEPSHSTMHOFEDMT]FGFAPOL?JFXFJHRHDG?EF@LOCWBCNBBDXN?LHFNDJHJ@TC
14972710,103,부천종합운동장 인라인트랙,3354,305673,0.72,0.4,37.503722,126.798639,37.503786,126.799089,qkrcFaereWA?Je@NQJUP{@A]EGGCGAGb@q@dAUj@STMFAHBJXZF?PCJIPOBO
18038011,104,Following the wall,3347,4976,0.9,7.9,37.572636,127.008633,37.580394,127.008491,k}qcFgiteWH_@r@wBJe@DIBQRg@PcAA_@B_@CO?QKo@GKKYA[DM^YN[?YC]OQES@GHGPEFEDOAESUO[QQ
10177476,105,서울대트랙,3328,419377,0.43,0.1,37.46492,126.950743,37.464972,126.950793,q|qcF}iseWe@][[y@qAwA}A[a@o@qBAWDgAEe@GKo@m@EIAKDSz@_BNURUbFgB
21311249,106,TRB - 고구려정입구 아차산 버티컬,3296,10052,1.07,9.5,37.558846,127.102701,37.566848,127.102752,wjtcFcazeWYIU?SFUPMVITBVFRJTfCpBPPRHR?REPOLQDY?WEYISKS_@Yk@k@cAu@
14412611,107,Around Noeul and Haneul Park,3239,26866,5.89,-0.0,37.576018,126.880205,37.575966,126.880337,c|pcFczyeWJ?b@NDCBE@WEi@Ba@Ja@AORe@`AqATc@H_@?GGO?IIk@?}@AKTs@D_@AM@UEm@?CLEx@sAFwACm@PmAXiADm@Hk@`@kAJaALg@Bc@Gg@HoAd@eBE_@@k@HIJk@Jc@JQ?UHC\k@VOLChAu@HY`@[f@k@\EVqA?QPyAHUPa@J[VSZDHDBKB[?QGM@OJo@?_AFk@@m@LK?OP[Ha@Ri@Bg@RS?eALGFQBw@La@?K
21132695,108,양재천 관천대로 - 관천교 ,3203,29346,0.51,-0.0,37.445657,126.996772,37.448976,127.000534,qapcFwx|eWw@p@[R[?UAULc@D_@GK@GNWd@_ACQH[@QE
11290422,109,탄천운~둔전교,3195,27645,1.81,-0.1,37.413344,127.121104,37.428823,127.11693,ymscFiv}eWTNRT\H|@@ZHHRFz@x@rAz@d@b@ZRDT^X\f@Zd@HZ`@VVbAn@n@|@NHD^l@`A`@b@l@Bn@Cv@DVFd@Ff@K^?hAK\?^GLS\Yf@]f@OrBaBl@Ob@Gb@a@JWbBwAhAg@jAO^KxAcBxAk@\QRi@jAeA~@o@
25544892,110,TRB - 남2문 장미광장,3140,17826,0.46,-0.6,37.514151,127.123046,37.512285,127.127654,_ascFkn}eWFJ@LFJANINJh@VHNJDLLBHF^DHHh@HLTTZBNJNHFPRCBFT@TJNFXD?CB@DBDJ@DBFPVDFb@DHHFDA@ETLLABAAGBEJEJMDAVAND\?DBh@G
13677796,111,Skate Track - anti clockwise ,3097,189819,0.36,0.0,37.517243,126.880504,37.517241,126.880485,uyqcF}l}eWbAY|@KhAs@R[n@cAL@HALGLKR?t@_Ab@c@lAw@^MLAv@Fr@EHLVNb@MRFb@Gr@@LAL@P\HBf@FHDX@NJDFE\HRNJFRDVHdB`@`BFf@RHFHFVDHJBHHFXLPHf@?ZLRIA@B[rA@PEPIFS@EPDJJDHXJJFPDXHRZ\Nf@Df@DPp@\JJFJ
14608336,112,서원동성당-신림3교,3095,23093,1.04,0.0,37.478162,126.933188,37.472405,126.93326,obrcFaszeWVHp@ZXPvAf@fAh@VFbBr@dBh@~@b@f@ZRBvBCd@@H@PCXDj@@HCd@@RBL@v@ETER?RB^C
19639562,113,진옥자전거캠프-서울둘레길2구간(망우산도로)(JOBC),3090,11428,1.8,4.5,37.597779,127.115041,37.584746,127.107024,wkpcFis{eWLHLADSLW?KDGPCTIPYGU@EDABBND@ID?JF@IDGJCLMTBL?BBF@?IGO?UJ_@AW@SFSHIECJQ?GFEAIJMD_@HGB@FCBQPIPGLL@WF]GADQKB?MTw@GAF[CI@EAE@e@D]IKEY@E`@]DKNKLe@HKBOAO?FAG?GHWLOBMGm@\s@GQ@KEWAYIQAKW_@MK[GYJ[DUCs@Dc@`@a@B]J[AOB[XG?KKEAIJEJ?Z@DCHKEKFQ?CNQEMQM_@MAEBQ?UE
5663897,114,Han River Bridge Island half lap,3064,11409,0.93,-1.1,37.518157,126.959647,37.516655,126.958862,aiocFqoyeWIq@Fc@Tu@NQBWHY?KAK@EBW?mAWe@WSCOCAEKIs@?GF]AYFABCFW?]LKEUBMa@UGKHADCO]GSGEEYSWOGCGGCI?IO?GDC?IECI]FYD@LC?GOAIOCGBMFEEOGEJCN[MUMEAGDC@U@CGE?E@CNBGU?SBAFBBGPMFKASDIBU?MDGBM?UDAAKBIFGB_@CSDQAQL[AWHe@@eAIk@?OKa@@GQ_@Kc@HKMe@FWAUS]?M@WKcABQEMA]A@BMGWEEAa@[e@O@KJKAGGQAc@]MQIG@ESWM{@IMCc@Ko@@a@CSSg@IGCIAQDAF@PIBEJk@AW@KAG@OEc@CKDYCa@HeACS?m@EM?KCGA@CCUu@GGEOCiAGU
38990574,115,Race to the gate,3061,6171,0.5,-0.5,37.46247,127.108124,37.458051,127.107651,}nrcF}iweWDWe@Oi@MEg@@TLRn@Vj@b@^D`@OH@|@Xj@JdAZhAKf@T`@VVVD@`@p@
35792620,116,선바위굴다리-관문굴다리,3055,26659,0.78,0.6,37.449572,127.002988,37.445359,126.996558,wuocFs_cfWd@GZe@Ds@Im@c@Yg@C{BDg@F[ZMp@Ll@Z\b@HhAChA@
28335507,117,우이천 월계2교 ~ 꿈의숲SK뷰아파트 103동 앞,3023,52442,0.52,0.4,37.624284,127.050175,37.620567,127.053765,qntcFek~eWAGDG?KFE@ODAAMBC?GNMF@BMDIBAHMHEHULQ?YDEDACGICAMCCB?CBACAKCJGOBDLB@@AADDACFC?BAACB@@X_@BBJB@SROHBCLEABAA@ACBDCAE?AEB?B@?@BABI
11401341,118,[얼공]1k후문→분수대(북)_@ddamdo,2981,49001,1.07,-0.5,37.551182,127.08666,37.549546,127.077856,{tscFk|}eW\v@PVfBhAj@NfBr@vAz@Rh@Nf@n@t@^PVR^JP?NTz@t@^V^RDVb@HLJ^Lh@`@Tp@LLHDBDAXJNBRB@DGHLL`@LNfAz@TIB_@JKLCb@?RJd@NL@l@WJBXCVIr@Aj@G`AqAT?PE`@Ul@k@j@_@RK^K|@GLGFIBMA]BK?QTKXAx@g@f@Qn@O|@KhAs@R[n@cAL@HALGLKR?t@_Ab@c@lAw@^MLAv@Fr@EHLVNb@MRFb@Gr@@LAL@P\HBf@FHDX@NJDFE\HRNJFRDVHdB`@`BFf@RHFHFVDHJBHHFXLPHf@?ZLRIA@B[rA@PEPIFS@EPDJJDHXJJFPDXHRZ\Nf@Df@DPp@\JJZh@J@]EIc@}@c@DSEe@GSSMYu@Ie@OQGQASh@eDa@}Ba@Sq@aBSgAIUI}@@Sw@mA_Bq@OKmAK]Aa@@KAKIg@EMEOBmAMO@KHe@FS^e@f@c@^KP[XKDKEMHKLQLgAjAMVkAf@s@FWKODm@Ve@\eAl@GPu@~@W?_@PyBbBQCQDSLSd@g@^gBTQJk@JQHa@Jw@E}@W}@Ka@DOKc@u@CIOCGOB_@OKWc@GS?O_@a@WQoAo@GOk@Y_@Yk@u@IGM?c@S_A?GGS_@IIIOGWQ}AIIa@SM@UKI@UCIEIA[SSIOAOGK@OIWQMOc@U_@]i@y@GWMS
14923594,119,Final Stretch,2957,4139,0.78,-1.5,37.450547,127.106018,37.457469,127.107444,}mqcFmnbfWc@V{An@qAf@mBz@{Az@cCfBqAhAsAdAsApAg@\yAf@e@Fa@Lm@TyE|AgBv@e@TiAx@cBhAQF
18874939,120,Being watched,2941,5228,1.39,8.8,37.592452,126.998263,37.593739,126.986021,irpcFy`cfW@A]a@yBwBy@aAMSAa@Q]a@Yo@_@uCgAm@]][kAwB_@{@Iq@B[
13527829,121,Eungam river,2933,28941,1.09,-0.2,37.594133,126.915131,37.585007,126.911765,c~rcFq|bfW]\y@XUZYBa@J]RWF[VODWOIUo@WSPWX?^Up@EXA`@G`@QZs@b@UBOFUVHXj@t@PJ|@BKTuA\W?WGQSQ@BZ`@n@JVPH
6377278,122,Segment,2910,4639,0.5,11.0,37.596724,126.976015,37.593677,126.973912,yjqcFsgdfWXx@J^@t@TpAVhARbBT~@@X?\@PH\LZpAvBVZPNXRfClAd@XpAbADR?d@DHlAjAVPhAfAbAnAXR
8553131,123,만의골 애보 언덕,2780,48334,0.8,4.2,37.44581,126.764304,37.451971,126.76883,cvrcFuxafWm@z@SFCC@B@IIMKEGSOSUL?H?ACDC?CE?FB@BIFEGGBGCISQM?MY?UIGKAOFIH]d@WN_@J_B?aAPWA{@Sc@[QS{@{BIYGg@KW?MCK@IEGAKHQD]EMII
18377077,124,광진교(남->북),2774,10662,0.89,0.2,37.542961,127.118819,37.545842,127.109495,wjrcFabcfWCx@M^SRWLEXKVSXg@LOH_@FQBq@CWDSFSV]DQKQEYNWZ[T]Ng@J_@@UP
13640932,125,신대방역-대림역,2760,11667,2.41,-0.1,37.489061,126.915465,37.49174,126.895415,udqcFmsbfWu@T]RsAb@ULKDK?SPiAh@[DWRk@HeATwARIAUF_@Vc@Na@FQCGDOCIB[Ty@ZsC|BY?MFSRCJSVIVORMF}@p@k@L
9278345,126,gate to Samgakji,2760,11252,0.38,-0.4,37.534665,126.980418,37.53452,126.976119,ixrcFe|lfWDXNl@zB~Be@LCFBFX`@z@|@T`@ZZ`@\~@d@^\Xd@Xp@P\h@h@VP`ALh@?XCRAj@HRE\@N@l@\~@@b@Pj@Hz@XX@`@FXJPRTLL?DKHEBKLMPEJDLXH^Nf@F`A`@`BTp@NnAZn@JZDd@FNDn@?LGNAJNbA^j@\x@d@r@Ph@PZPbALVBJCz@DPRXb@d@
11662397,127,중앙공원 1바퀴,2744,166839,1.56,0.0,37.49873,126.767856,37.498722,126.767902,udqcFk`kfWc@]SC{@VQGOEs@J]d@IBWRQBQJk@PS\GAIJq@LWPE@KPGBM@OPOFGA
21920281,128,진옥자전거캠프-관악산(연주암.연주대깔딱계단)(JOBC),2698,4967,0.25,26.1,37.442973,126.964769,37.444952,126.964078,aeqcFc`kfWNJND\NZPj@Rb@?PMV?PIDEJEJ?T@THTAb@J`@ZJYLOFG\MFITw@HOJG`@O^UnAWPAh@DTBf@RXCh@BHFJ@PJb@h@VRPFL@\CN@VLLLT`@NN\Vb@THD^ALBf@LVLTDDVFBNTLFJRBHNPJT?LHZLTLD\XNZZRVFL?h@CXGl@AFE`@OLKb@S\BPE\FTA\QFI
8356449,129,관문운동장 400m,2697,497537,0.42,0.0,37.441083,126.996586,37.441057,126.996573,aqqcF_blfW@PCXHPDNAXRr@FHFb@HTLnAJTb@pA@THPB`@KXATBZNn@VZNd@@N|@rAP^DX?H^|A?b@H^f@r@VVTHbAl@\Ll@DLEH@XOXEH?RJPAXDRPJLJ@LG`@_@RCFCJKBM^e@b@]jAe@dAYl@?HBDDTBXC^BZJL@JFPPb@^XH`@BHAJBFFN@NNR\d@`@XH`@RL?VFt@PFFDAPBBLLF@HZTPXJJTf@Jd@`@f@Vd@VVv@Fl@AVEf@FHEd@IRKb@Kh@Bv@GPGTYHe@
6377278,130,Segment,2639,5250,1.02,8.1,37.652629,126.953905,37.652418,126.962502,{pscF_bmfWS[{A_BYa@WmAc@UGGTm@?S_Ay@UKuA`@o@LwB?G@EFy@AEPk@bAUV[F]^Uf@IDc@JY?K@EBIPa@FGGo@_@c@Ea@Hc@?KQWeBo@kAg@m@WQSSIOOg@c@u@_@]UASWc@KM?
40667936,131,상계교_창동교 서편 by psw,2631,14153,1.03,-0.3,37.661821,127.050966,37.653024,127.053703,yvocFmrifWW[IQKCEEEIKKIe@BaAIk@@GJCDE@_@MIEM?QJc@NYNe@Fy@Iq@IEBQCKEA?KEE?KEIFMAGFUEUBK?OKQBKFGGUDGGMCUGI@KGEKW?Q@CD@RKJOPIHKJUF]BEHANIX_@X@r@GXGn@AHKRCPUPMb@Q^@j@JV?
22116933,132,TRB-청계산 깔딱고개 버티컬,2562,4774,1.02,19.6,37.434362,127.044608,37.42896,127.044531,{arcFaglfWTGFBTCNBXRXBDCD?LBDEP@RLVFf@TPD\R\BDFLD`@\^EVB`@ODDHf@DJFh@HJBHDBHZFj@PXLj@D@BFMJCH@D`@THVCDPd@C^CBAHBPE^?DFJNJLl@Vb@XZNVPh@CDLTPh@R^?JSTIPTnA|@zAXn@d@^FPJBXTNBPNb@TDEF@BCDBJATDPHXBNEB@PGRCJO^IBBT?~@ZRDf@A^c@f@qAVWBA`@FVAn@k@F?DDDADDf@AL@^CBFXFFNJL\D^Z^BRC\IH@F?PDLHZ`@LFTXp@j@dAf@^FHHD?TLF?BNJBX^D@Td@NFLRRh@RRLRNZDT^T\DRGNATMTIJ?LKp@IR?NGJ@RH\@FBFAPID@\QNOTG
29025329,133,우이천 벼루말교 -초안교,2553,38962,1.61,-0.0,37.620421,127.053741,37.631086,127.041589,eurcFougfWEIO}AIUwAqF[_AwAcFyAwEa@oA]y@e@m@c@_@_C{A{@s@kAw@[SQGqAy@wBeBiDaCcBuAgD_CiAq@k@MiBB_BVkAVeAJmATkC~@
26001607,134,진옥자전거캠프-북한산(쉼터2-하루재)(JOB,2516,4208,0.35,33.1,37.659854,126.989239,37.662256,126.986972,iftcFwoifWg@EQ?_BV{Cl@yJpCg@DYAUEYMi@_@kAaAu@u@yAmAy@g@sAq@_D_Dw@u@y@}@i@c@c@Se@u@SS_@U}@sAg@aAk@mA_@wA]oB]aDk@cDq@iA{AsBYk@E[E_BM_A_@uAMs@[s@_@g@_@u@KMkAgAmAaA}AaB_EeDi@i@cG_FcB_BmBmA}ByBUYiCeFu@iAw@uB_AcB{@eBWm@qAgCu@sAa@e@O[i@wAuAsCcAeDIO_@[WYk@qAc@a@e@u@c@eAs@mA_AoBeCwF[y@g@w@g@oAm@gA}AaEiAuDUaAe@eC_@iDKmAe@sDKwAo@sFg@{EWyDQwAKiAM}@]cB@IPOj@QH?JL|@~EB^Cn@Bn@FZRj@Lv@HdAl@`FbA~JdBdOX|@hAfCj@xAZl@bAhCj@bAj@vAzClGl@dAjBzDz@zAz@hBb@hAp@dAj@hAtApChAtBzBpEPj@\h@hAvBpBzD\dAjAjBtAdCLLd@\nAtAfA`Ap@j@t@f@rD|ChBrAdIzGlCrB|@z@p@fAjBvDJb@Fr@V|@TXNLv@ZPZAVIVq@t@CR@LfBpNj@tBl@nAdB~BTPj@RLNd@x@RVh@b@t@f@`@h@tBnB~@n@VTvFfDl@h@~@|@d@ZNDJ?XEl@YjA]~CiAx@UhBu@TE|@CjAWPA^FZJHLIl@Mb@
10670984,135,한양대 트랙 1바퀴,2495,199294,0.49,0.0,37.555148,127.046881,37.555167,127.046867,e_scFehkfWB@A@C?HGTEVBZWP[HEZBb@QvAb@p@b@LZBNDFRHFFd@Nb@CLKRGl@CHF@G^[RIJ@XHJ?x@KFDz@nApAfCDJ?Fv@pARJVTf@?x@PBBJAp@SPA
14657111,136,둘리 VS 고길동,2472,37962,1.41,-2.1,37.641724,127.032837,37.631745,127.040985,wsrcFgyofWbBiFh@}BJeCAcC]iDqDyPgBwIgA_H
2707595,137,부암동 359 10 Climb,2454,6739,0.54,7.7,37.590862,126.965584,37.587062,126.963881,w|qcFclufWH@l@?p@\N@H?BIPGLSFCFB^fAb@~@X\v@b@dAbAh@^NJVBDFPD\ZVLFJZXJNRJ^\z@LV?^Ip@G\Q`@KXE\JV@h@Pd@H\LTAV@f@G^Ld@?lB]TBn@XDFFPJLDJRDBTRXJ\JN\~@HHZVJXHHBVAPe@zA?LF\P\Pj@FVCL@NDD@HDFf@t@LXFn@Bx@Fd@PJVDRJV@JBh@d@PH`@d@LDPBf@@n@Gl@@NAj@HzAv@PT`@r@DVHV@XN~@JTLNTb@NHRPLXLB
18252005,138,홓제천 > DMC,2442,18244,1.49,-0.5,37.562845,126.899776,37.575229,126.901306,{iocFywqfWYMm@IKDi@J[TWJM?MEOMOCWFMAWLWCIJK?ACKACI?KKFIEMDIKKJMBCC[@MFAEECIBQOIEIMQ_@Gc@IM?GKGEQ
1620966,139,진관동 158 28 Climb,2442,5232,0.49,9.3,37.6229472,126.93267983333332,37.626521200000006,126.93241496666666,izocFu}sfWEAMMOG]?SCMDGAI@WHCDYDG?SGSAKOi@c@IAQQKQKBME[KSAk@UIUCSBUK{@BMAQISIKEMIEKKAIEC@?GAGq@IQG_@Sc@EQCe@DM?SFc@HMDA@K@?@SBACOC?@@CKIOIAEIICGIIQMo@CCQ_@?MIGAMOOA[C?BGHADD?BIBCFCA@?@BHMDYD?CA@A@NB?EEB?@BAGG@?GC?ANCDEDK@IHEBOII_@EG
24680117,140,어린이대공원한바퀴,2436,31370,2.24,0.1,37.550639,127.083514,37.550009,127.084568,khqcFs}tfWr@FFDLEJ@NIJ?BC`@GTMDGJEPAHCh@CH?PJJ@@DHBDARLT@PFL@NNJDVKHBn@GH@XRn@APEROZGHANIJ?BBN@@DHHJ?JFB?
22631051,141,TRB - 불암산 버티컬,2430,5791,0.41,34.8,37.661398,127.092928,37.663574,127.095232,gircFg_pfWAFDDDN@`@D@BJNL@NAZ@FIZEFCXBD@GHF?GDC?NMd@E`@Az@En@m@|ADXAJG?BDZV`@l@b@`@@JL@JH?JFPR\VT\TNTDL\`@XL`@HHFP@TFZBx@Pl@T|@d@`@NVPFHTFf@BbBZb@Z\Fp@PFJBJTZHFNB^p@VRFXPZFVr@fAHPBLNVb@j@NBBNEDAFTl@RTDBFAHJE@CJMRWZw@pAMHMEUHECHGL@BCJA
28217084,142,Jeungsan 5k - Monster Stairs to Bongsan View Point  ,2416,7215,0.49,4.3,37.608359,126.902034,37.612251,126.901249,qvqcFqkufWH\FHAHFHZr@VXXXbAf@d@j@d@\JBOEi@e@U[sAs@]a@Wc@Yq@Gk@
26607022,143,끝난줄 알았는데 또있네 업힐 700m,2397,37062,0.71,1.1,37.548752,127.077413,37.548594,127.083778,{pqcFqkxfWeA_@qA[_Ca@cAMkCOgBScH{@kAWe@Eo@A_Ee@qCK
19482363,144,진옥자전거캠프- 서울둘레길3구간-일자산구간해맞이광장(JOBC),2368,9303,1.32,1.2,37.537685,127.16294,37.530045,127.15333,e|qcFuwxfWK`C^PhANdBBH}A?}AIC{@I}AQc@@Al@
10688477,145,상도교 → 장암대교 (중랑천 서쪽),2359,23807,1.28,0.1,37.686223,127.050921,37.697149,127.047929,aetcFqdwfWHFVf@JHHV@RF\r@zABjAHt@Pj@JNIAUY[q@CM?aBAKm@sAGq@Ui@Y[
28216831,146,Jeungsan 5k - Susaeksan to Saejeol ,2324,6624,0.69,-3.6,37.590166,126.90013,37.595107,126.901909,crrcFua~fWK^@JHRFDXJVA`AO~AO\MXm@AUKWKKOE]?}AXmAFMDKLIT?LDTHLNJVHPAdD_@RMNSDM?QESWOWI{BJ}@TEAUTE\?LDNLNRLH@nBOXGd@CRGRUFS@UCOGOMIYGWBa@F
9158674,147,장암대교 -> 상도교 (중랑천 서쪽),2314,24085,1.25,-0.4,37.697047,127.047905,37.686328,127.050771,qbtcFwa}fW@g@Ps@Xc@Tg@FEREd@Yd@MLMDK?[H{@Lo@Ee@F]NILk@Bo@DWA[Ng@`@g@TMd@OP?p@Mr@@z@b@f@\l@V`@f@XPP@\S\KLIZWX_@NyAJ@DDXf@B@FAXg@HGPAN[ZYPYHCJILSJCPCb@?`@GPK\]TOV]@GR}AN[Ho@DMH}@Pu@f@m@J]Xg@b@]^c@VOd@c@n@Ch@DR?RSL@FGCGDCLJJACADUPGR?HABEN@VKN@LDl@EHDN?DEL[VWN]@QA]U}@Oa@@sAUcAK[GUCk@@[F]LMHYE`@IPIKSo@IBGAMMWIEGIAc@YO?KCo@w@EMC]GyADu@AgABe@EEIAIBE?QOMOCs@O{AKa@Ga@Qm@G[EMQMU_@Sa@COKSCQAWBOJQDQ@_@A]@SJa@WYKAIGEO@OVw@Cc@IUUa@GWHiADF?\ERw@cAS[GBGJGZFZAHM?UGe@SQQ]uAYs@a@eBBGZWCK\a@?UEILSBMEKOQEBDTAFQ?WSS[Um@Q{@MKSEOISEQ?SGW?OBYPST_@TWHW@MC_@Wa@e@[k@OKSKg@MKAYM{@U]?c@RMLGPOPQ?SJI?WOWWKQQSIUKIUi@Mg@MQUUm@WUUESGk@GOKeAGQGIAQc@_BA[ViBDsBKc@Uk@?WGs@@U_@iCKMMCGBKNKBKHE@GC?GBOCKAWD[?IKSABIACO?SCDE?AGKIAEEAGMG_@Um@Ga@Sa@OG_@]QCCBE?QEEGIW[c@KEEGKc@EWOc@AMYm@AaAEOYe@_@]w@{A]a@Wk@EUGCY@CGCOGKCHY?SLUBMCSDs@YO[C[@QCU?_@BWDE?@GGGi@MY]qAEIMKAMS]Ui@EYa@o@IYGKQQSCIIGAKIWWIQQMKO]qA?o@EYGUBQW]DO?o@GE?KH}@DkAT]AWDE?IPSFOCE@SEK?EGSGq@FMNM@UFSBYGQY[GKFkAEa@EKMEGGKE?GFIAKBSK[C@ECEMES?WKK[SAKBQCCC?QQQe@W_AGISESKc@KOMMIMWOe@kAoBK]Yi@_@{A?o@CmAa@eASeAq@eB?e@Im@K]S_@AUR]?GO[oAkAF?@OEIGCU]A_@Fg@EYCE[MIKi@WKM?q@JCPYIKEYSk@Ja@IOJg@CWMk@Sc@]]]UOe@@i@Hi@Xa@VWTa@@KAWFOAQCEKISA@EFC@@@JCDI@EDODOJANFR?FaAt@QPEJMn@ATIR@TEb@Ux@@NOd@KPg@nBAHBTEb@EPe@VIR_@d@i@VOB[@MLIZKLUJg@JMHe@t@KZYf@i@pA@nAMLiBHYAUHENMDSPE@A[SU_@w@Oa@EYYk@IKAIz@tBGFOEEGOAGEMBQGGBGCKBKJI@MLc@PGACDYLMNUCa@ASLMDIEGQMUYYQIOASMMOOe@IKSIYCy@Nq@^QFo@IM@s@RcANw@Gs@?UCWGcAs@_@OOAe@PGRa@l@MDk@DOAi@a@QEe@BKFG?GLMHG?ECHkAC_ABy@E_@Ye@Ie@?]Fc@Bu@D[H[NQPMZc@LMHg@FIEk@BcBBYNm@Pe@bAuANYHYDc@Cs@Dw@Hw@Jg@DW?o@Ja@Zs@F[Ee@?YE[BQAAJK`@GNIDGJa@PYpAk@XSPEt@CPCd@QLCLI\ZD@BAHUNSLEV?HIBW@i@BQf@}@BQDw@Tk@R[Ji@AIF{@Ms@Cg@ES@c@Rk@DCHOLc@FKLKT]J]DaBEw@GY_@eA[gBEa@@w@A{@I{@Bc@Cc@Fy@Ee@IKCUMUa@[Wq@Qq@QWCM?cAH}@Ta@TaALy@b@w@DONW@UEQUUCODODG@OLYDITOXEZJRGDYFSd@w@@EGUAa@B_@Py@Ee@JWDWNYH]?WGi@NUBUZQtAgAH?TBNGXAZIn@C`@GrBm@ZOz@Sb@SP?LDXRNRd@`@b@RRBT?t@Lb@Af@KJGXa@LId@GT@NHDFDT?z@T\HP@ZEh@?NDRJN\JNA\M`@]RALDX`@NHD?TC^OJOHERANHT`@NLTZ?HCH[ROREh@Jv@CLGLYXQFy@Nc@Vc@JMNe@|@CBK@ARIRCXa@f@Wx@?X^n@DJ?LIf@Ch@SVERIJAFBHZ`@JFVVDH?`@DFVG^QLCT[RG\SRGVFHJRC`@OF@b@GRPFXHNLBNHPDZZD@DJNFHFJBBFJtAEf@CjAE\Wh@Qt@CtAGt@@\Bb@ALNL@HKt@@RLh@HXTb@DR?~AAh@B|AD^A\Lh@Fb@ItABr@Rz@p@fBFx@LbAAzCEd@Kd@?PBNX^LVP|@V~@?NCBUFCBQjB\nAHbACLEDI@[CY@YJ]Tm@h@UHs@OQ@YPI@g@Qy@?e@S]AACDQ?KM?ILJ^IV?p@GLYTWZMTG^C`@DRNRd@\XZHVDHJh@?NGf@HNAJKP?DDTNZB^FHAHU^CF@VBDPFPNVJRPH\@`@Ej@@FNVPP@Pb@b@l@|@@NQ^@BFFBL\p@BXEj@Hf@Rn@LNHVLp@JZVh@D`@?tANh@Hp@LRNh@`@v@n@bALx@RNFLTJ|@RNJBJHJ?LDH@NP\d@`@?FAJJTNJBHBPBh@DNLHJf@JFBNPTDr@Ch@?XFPNJFJ@TGp@INIDCHHr@BbAIPMNCN@VINSv@KbBHj@APRVATFJJ^BRAVBXRjA^`@ZVNHTDPNPf@f@n@Nh@Zt@DXPPR\V`ALXLx@A`@?d@E`@FZNJPF@FRFp@GT?JDTPPHLEJ@PVRd@b@TDVDJRVP^VPJLP\DP?NFX?P@DHBLXDZJ\Cp@AO@OTVj@Jb@ZLNLTn@f@LTZRJLLZJXDTFHPh@An@RlAGp@CHBZDFD@XXLHHTLP@L@A@HP^BJ@TCDBB@NDFPJTj@FR?n@AX@j@UxA?ZVtARd@Lp@B^GhA@JHPTNl@JX`@ZRPZJv@RPV`@d@\F@JAP?JGLYRMTGX?f@P`BZVH\Xf@r@f@\RDR?NCdAu@^KLCnAJNHTDPLNr@P`@Nd@DHVZPBA[BCDAJFJ\KZDN@Ra@\AFBHABYRAHDNt@hCBXJPBXPNLDZXFBJ?BCKYBEAODKHGLGF?^b@ZTDLFFNd@NVN\@JBdACHQZALHL^PFNCTM\FVOhA@r@Nl@PRLVLJJXn@fDB|@AjBN`@?PD^Nz@b@n@@JC`@@^?TFDDAHPH@JFFAJDPETHBD?LNBBHNALF?BFADRBBR?@JHFAJBFBBBVE\?TBd@N\Lf@Ff@?j@Ef@DLT`@Tx@?NI^Lj@d@l@FJI?GCKO[QO?UHO^SNWEOFOBSKGAi@^G@[II?KJENE@IIE?MPOAEFE@QBWGa@Aa@JY\k@`@ORQJSR[t@g@b@Id@EpAETK`@MNMTWtAGNST[Tk@l@YJq@DMDe@ZGFGTi@x@UFGD[b@KHG?UMQa@EE@VCZEF?JANEJUXYRILKBMHWTQDQ?OMW_@UUkBgAWQm@DYCs@Fc@Fe@VMLMb@QtBK\SVAV?p@W`AEjAGJMHc@FMFk@d@O\a@l@QzA?F
5302285,148,Seoul Canal to Han River,2297,17350,1.51,-1.1,37.49975,126.991388,37.505523,126.979166,m{scFwxxfWz@CXDnBJdAJx@Db@?vATxBFvCb@t@B|ALFCBQ
28216981,149,Jeungsan 5k - Saejeol to Monster Stairs,2297,6355,1.36,-0.6,37.595218,126.901952,37.605883,126.901714,_{scFqyxfWXeDb@wA@YNiAJmA?YN{@@eBF{@RiADw@TmAr@aB^gBI][y@aAc@o@i@}BuBW[_@q@CG_AuFWo@McA
6377278,150,Segment,2288,4487,0.61,11.7,37.472008,126.958674,37.471342,126.953887,cbtcFwb}fWH[V[BMFGVg@p@c@NOP?TMHKAeAZcAAOBKESHICSNIBMJIDQ?_@BU@k@DGH_@^g@VOnA[b@?NCD?PDdAn@j@RRLz@fANDPAh@c@PE`@_@V]C[BIAWDWDGVXBVPHJCV_@FMFEP?DATc@PMHUVOLQRAJGv@CNGjAaALUHa@FO?YJYDSJONc@HqAJs@R[ZYRi@\e@LELMFMn@e@X[NGVET@^LF?LILANSRH?GJSHGP?NCV?LQBDFCL@LFTGJBFCDD@FD@B?DED?BG
12434852,151,Hongdae walking path,2280,8266,1.31,0.0,37.567562,126.917281,37.558407,126.925479,{krcFs_~fWaCJWE[[Ei@Je@ZWh@EbCId@NPb@En@Y^G@k@B
18935062,152,[Tom's] Gate downhill to Rose Garden,2267,4889,1.82,-7.0,37.608264,126.951404,37.610389,126.941653,iyrcFe`agWG@MKIHOFg@d@AF@TC@Y[Yq@[cA[[QIw@WIAE?SLYJq@f@i@@g@_@{@w@WQ]Mw@OiAc@O@]HWN_@JUDi@YGGa@Oi@m@a@]IWKOcAq@OUOw@KUOs@Q_@CK@WSeAAUNmB@eBEc@M]Ke@Gs@Bq@_@kCWi@OKQY@WKEMc@QOIMBOMkBQ_@]a@IMEOIAQ@GESQUQm@{@c@ISWIWSWKYJm@Me@CSW]e@_@[q@
26779129,153,진옥자전거캠프-청계산(헬기장-매봉-매바위)(JOBC),2257,4001,0.73,5.3,37.430702,127.047264,37.42911,127.045843,g~rcFs~`gWSgBCKi@Iu@Yi@NSNg@RY@MCq@YgAs@MEYCKIKAe@Uy@UYDa@LMJKNMF]FKDIEKYMOGYMYw@aAEMQSMKWMKAOU_@gAa@aAEOO_@Ec@U{A?ULaA?SE]?UCGDeAM_A
11142972,154,과기대트랙,2224,357082,0.42,-0.1,37.62974,127.078949,37.629773,127.078966,u~scF_~agWFFAHLb@?BONGNEl@[dAGt@?v@Lj@?n@FPBv@LZTFPLNPNFNLFJTz@PTBJFHFVFJVRn@AVERODB^Md@ENF`ALRH`@?f@NFD|@nADBRTXH\CRELKd@?n@MX?b@Bb@Jd@BHDLv@Zx@
16434090,155,2017중마,2221,2689,42.3,0.1,37.511637,127.076172,37.515679,127.072291,grpcFk}_gW_BeBc@[]Sw@EoAFsDXo@?YI[U}@c@MKcBcAaBsAw@_@e@WcA_AYe@Ug@q@kA_AuB[e@y@{@_A{@C@]][O_@IyCAUE{BIIOmBEiADk@Cy@Q
12869901,156,[HUMANRACE] 중랑TR 5K Course,2216,3484,5.03,0.0,37.593188,127.069716,37.593081,127.069753,uqrcFk|_gWD`@NN@LLNHT?FJNCt@Hh@?ZAL@VBB@FERDLAFP`A@`@H^DLXVBJp@`@RHJ?L]HIJEBCZi@VMJg@NMDKFGP[\[
16918444,157,[hirun]망원유수지 트랙,2191,142296,0.46,0.1,37.55758,126.8979,37.557602,126.897931,{|rcFcv`gWNd@LT@GKHKCN@V\D`@JXTZZj@B?HGDIBg@DOLOHEF?LVf@ZDN?JDDJDRPJJHPCD@TFJGPK@CF?XAVHL@FBD\TDNGFSHAD@DEJBNHDALUb@EPLTIVHNCLJFR^NPJTHF?JHR?HFPAF@FNFBD^xAD\@`AMbABVHPCLJj@?LHb@D@BHHd@JPJH@LAZDLE^p@l@Pb@DB\Hf@ZN@XEVDAGDCH@@DATKHXnADFLp@AVBJC\At@CDDBHRDZRh@AHLv@Gl@GJ
40581609,158,창동교_상계교 서편 by psw,2191,10487,1.09,0.0,37.652555,127.053679,37.661864,127.050879,}|rcF}y`gW?EZ]BSAULY@IEK@GAEG?ALBHCBU?[OKY?MSo@E[IQSMu@SQ?YIM@m@NaAj@g@H[MYQUSM]_@Yg@Ko@EqAk@W?c@L]\SFCDUJGAQKQQKAWKIY@g@CGIOOMMc@QY[UYGOGWYGQEEAOFSEIDUCc@[_@MIEM?EGQ?IBGCEBSIe@FU@]@E?WHc@Ci@DW@QCIBOGa@O[QWKEFG@KAQGOAUDO?[CO?OW}@Ic@EEGAWFMJ[DGCBE?GCWHOIu@KA?EGG@QI?CC@EOIGKG?AEMMAw@CIAYIUQYECGBEGGAIQIGQEULGGMg@S[SKAK
7371913,159,어울림 1 lap,2172,453277,0.43,0.0,37.649689,126.832012,37.649691,126.832013,ygwcFerudWb@J|@?t@NPC^HL?XFJQDA|@ZLJLIRCLEN?h@YHMj@]Nc@t@aAAMCC@CC]Rm@@SCA@[Lc@F[T]f@QT?NETBRML@PIHQPGZLH?DJD?RN@JHHBHAHDRHFHNZHL@h@VLCNK`@Md@g@Hk@Ri@LSTMPWd@_A@KNI@E@OBC?IZ]~@_@^EN@b@KLHp@MPOTAXIF@
27587119,160,진옥자전거캠프-불암산(학도암-불암산)(JOBC),2128,4921,0.92,8.0,37.65612,127.091933,37.663013,127.094691,gfxcFio{dWe@EE@[Ta@LW@o@KO@}AKi@RYDGCQLc@AEDg@C_@FMC_@DyAh@GDYd@SJw@La@NSBg@Ek@@mAYuAk@UGWQkA]uAq@a@O[S}@]c@MOISGg@CYUQ?WGuDaBq@MsAa@mAIGDg@Cc@@gANe@Kg@@k@DeBU
13378457,161,여의도LSD코스-8Km,2121,6338,8.2,0.0,37.533447,126.909824,37.533583,126.909259,qxucFwiydWNx@Tp@Rz@H`@Tj@?DHLB\DBBPD^BB@ADJCHCBDLCJBDERFTLX?j@Jh@GPCREF?RFFD\Gb@C`@CJAl@ILEb@ED?RGP@HAL]T]JOL
6377278,162,Segment,2080,5283,1.54,14.3,37.646663,127.093405,37.657411,127.092069,mbwcFqkwdWTLZFx@XVA\FJH`@PRDhAf@hAbATd@^j@J^~@bB^f@RRNJPD
20824817,163,서울식물원(CCW#01),2078,28550,2.31,0.1,37.572131,126.833254,37.572125,126.833254,_dvcFs{vdW@MAK?[Q_@@GGQDIBg@HEb@ADCNOXMPYTKFQLMDULKPGDEVE^MHUAOFQZc@Pm@@OAGLY?CR]Ry@N_AHOFGJWA]Jq@DC?MDOK]DWKa@DQ?]FOIUBAGW?UQOSa@EO?@GGC]EC?IQQ?IEU?OEGCSJa@T_@FSD[A_ATc@B[N[d@UNQ@WJUTcA?YHm@?YEUF}@?}@Gy@Ku@?Y@IAUI[AUIOM{@Uw@E_@KSKg@MaAOo@Q[DWAGKK@QEYCECIC?B@BC@KG[ICOBU?ICQWOK]e@WSWIM]E[GMIEKKOKg@D[C]GWW]UYKIMGO]e@MCg@UWGKFMCW?s@Mc@O_@WOOE@IAIG
15230808,164,segment,2077,4228,0.72,9.2,37.486723,127.102242,37.482295,127.098291,kwucFyrwdWAUJq@DC?MDOK]DWKa@DQ?]FOIUBAGW?UQOSa@EO?@GGC]EC?IQQ?IEU?OEGCSJa@T_@FSD[A_ATi@
23256991,165,휴먼링 서-동(시계방향),2063,48938,0.64,0.5,37.481981,127.140288,37.481862,127.147238,_uucFy_ydWD^BB@ADJCHCBDLCJBDERFTLX?j@Jh@GPCREF?RFFD\Gb@C`@CJAl@ILEb@ED?RGP@HAL]T
6377278,166,Segment,2061,3891,0.71,8.6,37.62789,127.00862,37.62404,127.00965,cqvcFs}ydWNDLNR@TPJBJ@JAJBN@HDBAFB@Cb@@VJHFJVJLRFNVb@PFH@JZJ\TPFb@EX?HBZl@PPF@d@\d@n@NN|@d@NCVDHTD\Bv@DFDd@^rADZTp@Rz@H`@Tj@?DHLB\DBBPD^BB@ADJCHCBDLCJBDERFTLX?j@Jh@GPCREF?RFFD\Gb@C`@CJAl@ILEb@ED?RGP@HAL]T]JWTKl@?XIZ@LITWb@EP@j@DN?JLj@A@BRp@pBLx@@`@Ed@Jh@?d@Gv@@TSx@?POh@?LYv@UP@LC@K\@@Ch@OPMl@KLG^KTAFQT_At@OHMNOLMPYHc@XCDQJANSTM^CA?BA@Bn@LV
6377278,167,Segment,2054,3891,0.76,7.0,37.633163,127.00933,37.629005,127.00837,glvcFmtudWCQDS@WH[@SESRgANYr@PPGLS^@TODB@CDa@L]ASBMFG@IJGNOXUBIRUJCJ{@FQFAJMAIJOr@[B@TODGXIRAV@JENLXAF@FAHBLKHATW^M
19450989,168,진옥자전거캠프- 태능선수촌체력단련구간(JOBC),2021,5009,0.99,5.8,37.643246,127.09446,37.651325,127.09337,}pvcFs}ydWHDLNR@TPJBJ@JAJBN@HDBAFB@Cb@@VJHFJVJLRFNVb@PFH@JZJ\TPFb@EX?HBZl@PPF@d@\d@n@NN|@d@NCVDHTD\Bv@DFDd@XfA
21090737,169,북한산 둘레길 2코스 / Bukhansan Trail #2,1966,3503,2.33,2.9,37.651622,127.011716,37.64233,127.002228,mlucFgebeWKXQ|ARd@`Ah@^Z`@T`@iA@@BMRi@Te@`AwCVg@Ii@_@_@a@E]Vc@Hc@C]ZUd@Qf@]b@Sh@SxAJh@~AjA`@Rv@yBpAsC^wABYWa@_@YeAXm@K_@TYd@Mj@u@`AKl@K|AT`@bBfA`@LFMVcARk@dBqEJo@Yc@]]_@N_@Tc@Ie@F]h@Oj@Wd@[ZOj@I|AT`@|BzARe@Nk@~@{Bh@}AVe@Li@Oe@a@Ya@G]XkA@]ZUf@Qj@]\Wh@Gj@Ct@
19472901,170,진옥자전거캠프- 수락산정상(계단)(JOBC),1965,3953,0.34,11.1,37.69643,127.081795,37.699272,127.081335,udxcFmhaeWN_A?[He@\eAF_@COEEAIq@}BWQYi@w@}B_@a@m@_@@ITg@X_@ZGZ\p@bAVh@p@z@N^Nz@VJz@pARd@TVp@j@`@NZXn@x@Vd@?Ja@b@Qb@XrA@BE@AP@RFTIh@GFMDqAv@e@Ly@b@c@Ng@DGAQ[o@oBIk@He@CCKCEIHm@T_A
21703236,171,진옥자전거캠프-수락산(도솔봉-수락산주봉)(JOBC),1939,3917,0.98,12.8,37.69117,127.084576,37.69819,127.081225,sdxcFigaeWCFEZDHRD@LIZ?Xf@rBHRb@J\EVKb@]VMj@IZKTU`@QNMBKCaA@YKg@IOE_@FSl@i@BIaAaBm@a@_@M_@c@Y_@q@oAKWo@m@Gg@KW{BaDc@c@a@PW`@MV?FXHJ@b@\Rl@TfAb@lAXNDFHl@f@|A?l@Ut@C\MV?f@Mj@G~@?LTF
19367490,172,앵봉산 (의무경찰대-보덕사),1886,4114,2.81,1.0,37.619095,126.906165,37.636933,126.914011,_zucFen_eW_AnCQ^]hAYn@kAlBe@pAOTGDSD{@Fu@PkAJKBg@E
21132672,173,양재천 별양교 - 육교,1858,19007,0.53,-0.6,37.434098,126.99728,37.43882,126.994783,g}xcFaoceWJRJp@Zj@`@rAHR\dANZd@xANVR`ATt@j@jAb@jAVb@N`@tApCd@|@HJVPDLFDLV
20171232,174,성남종합운동장 반시계 1바퀴 #김진성,1854,251163,0.45,-0.1,37.433182,127.136698,37.433179,127.136639,mrvcFmi`eWT?^]Zc@|@{@fAm@`@]`@STG`@UdBsAfAi@^UdAaA|@m@\Yb@UhAgA~AsApA{@vAyA^Wv@_AzAoAVo@
6377278,175,Segment,1849,3875,0.47,8.6,37.458241,126.968227,37.45545,126.965962,mjwcFko`eWBEKA@OV]@YBO`@y@LMREJSb@MPMx@y@ZUVOPUPKRGbASfBIFAFIbAFJFDJXVz@Xh@A\BRGT?VMZAhBL^Cp@Mt@EXIbAO`A[d@SZWbBmBf@c@h@k@b@_@d@QnBm@^QtAe@PM|@_@RSf@u@V[R_@p@q@NUDCF@BJMj@?D?GNYf@s@TUfAi@nC_An@YZSV[HOIM]UCKJo@FeBRwBR_Bf@uAtAkBXu@T{@`@eAh@aAr@gAVi@FWR{CDW\gDFSVg@Ti@PQDFc@`BMp@]rEU|BqBjE[`Au@dB[j@MLAF}@~@Sb@Or@M~@OjC?VGp@_@bBUXs@f@a@Ji@XeA\MHa@HGRGJQFo@r@oBdC_@j@g@h@ULsBz@{DjAu@f@g@n@}@p@}AbBe@\s@Xo@L{ATU@wARm@@_AIq@A[He@Pk@JQAUIa@E]Ki@KUM}@M{@AoANa@JYVa@f@GPq@b@c@b@}@nAgBvB_@\OJg@HSA_@OYQm@OOK[IQC
2982725,176,상암동 436 2 Climb,1837,10144,0.87,7.9,37.575994,126.866877,37.576972,126.875483,cnvcFq{~dWUe@S?SP?XI\{@p@GVWDOTGZFZTLTDTKNMJUp@Q@aANQXg@Gu@KGUFQNKTAXw@t@IXSFQNCVB\PLV@TM^m@NYEMFSv@u@@[IYMKSAOPGv@g@b@c@d@m@BOH@b@F`@JZ^Jj@OjAkAd@{BAYK[WESHMTAXIXg@ZGZFPY@SRGZBVNJR@REZk@ROJSB[RONWL[@]G[UCWDQP?^IXOLSH]f@W@MVAVFXTRV?TKVg@TKJWD[\c@J[LS
19381408,177,진옥자전거캠프- 이수봉구간(JOBC),1833,3478,0.7,8.6,37.416954,127.041548,37.413386,127.046759,wmucF_abeWXZf@`@NR`@V\XFBDCP[Le@Tc@b@oA`@o@^gA^w@H]?OEOq@m@IIIAM@IBMPUPI?_@MM?OHUVMTYx@ILc@b@M`@EVCl@Q^?P
21780875,178,진옥자전거캠프-관악산(낙성대구간)(JOBC),1819,3797,1.49,11.4,37.460297,126.96949,37.449333,126.96975,iovcFmxkeWmEjCaBp@w@b@SDOHQNwB`A[JK@e@PC?q@^a@La@ToBr@}@b@[Fg@NS@g@TaBj@_@Ro@Pm@Vi@LWLuAVw@Z]Hg@RIDsA\
20171240,179,성남종합운동장 2바퀴 반시계 #김진성,1808,120741,0.88,-0.1,37.433182,127.136698,37.433132,127.136677,gsvcFuqeeWz@RN@FAVDNGJBFEDBDED@`@OR?XFJ@b@RPD`@RBChAAVFHI`@Jl@E^Kx@@dBl@RCjANV?v@HR@VC~ANXHJ@d@PDKH@tBl@fARh@T`An@dA~@\Pt@~@n@h@`@d@^^p@d@`@^BABLr@x@\Z^V^JdAP\?BCk@J[@u@Mc@Ok@e@q@s@IOKASY_CaC}@eA{@y@yAkA{@e@m@OkCc@[MC??DEAYISQQ?EESCuA?a@G]@UAW@SC]BWEi@AMDQ?e@EkAUa@?g@Kq@AQEQ@@CMC]?gBI]GO?y@I[?s@EU@QCS@e@Aw@MoBQ_BUW?[EO@_@EO?q@KwAD{@Ca@C_@@a@Ee@?YEm@?s@KWKUOg@a@YQOSCOSo@MDCCEOWe@Ke@MwALkA?a@AQF[?[g@m@DE\CFMR}@F{@HWDYR_@J]Bw@@uBM_CAk@CWYs@g@aASSw@m@KSU_@Wi@e@o@c@c@c@Ug@G}@WIGe@So@]w@Mc@QSCoBqA_@o@Uq@A_AEa@Ki@A[GSGGE_@CiBGm@Og@a@u@y@c@WSAEOE]U}C{Cq@g@q@s@[SQQWQQUi@a@e@[q@TRs@@FQIc@e@c@S]BW[KEGOKIEGe@YEO]WGCIWBO[o@G[EK
1454506,180,정릉3동 산1 278 Climb,1807,3290,0.94,13.4,37.61512618333333,126.99275266666668,37.61433513333333,126.9852246,qrycF}qjeWh@GrAGzBWdAS`Fe@h@Ah@IdDk@vEm@vDw@tBe@
1454505,181,정릉4동 산1 59 Climb,1802,3194,0.9,12.1,37.61714466666666,127.00224495,37.61644073333333,126.99525691666668,abxcFa_keWVGd@SnAa@b@ILGXCZ@JCRKbA]TCb@Qr@OTMLCVSl@Ut@OpB}@ZMXGXQlBw@PMP?`@OREXO`A]^Kv@]xA}@tAo@RQVOfBw@JMn@e@z@e@CB
18687476,182,to the ridge of Mt. Acha,1797,4049,0.6,14.1,37.55517,127.101265,37.558865,127.1027,q~vcF}mkeW[ROFQJ_A`@k@Py@\UPI@SL_A`@IBKCO@YLUVgA\ID}@TMHYFs@\aAZ[Fw@Z_Cj@ULm@Lw@VSLu@Lw@Z}@Nc@Nk@Li@?a@Ja@PqA\g@Da@FMJU^MHaBXk@N_ANq@PWBUAEH@PNtBPxABBF?j@Ij@S\E^K`AOp@SPA`@O\EF?FCNFJ@tBi@j@GPFt@M@GBAr@QVK~AW`Cs@\Gz@WpAi@jDaAvB{@vA]t@Wt@ShBw@v@c@r@q@\k@PMr@W`@Av@Fb@GrAu@PO~Au@`@Yd@Q^WxAk@vD}BVMN?BM`@Sr@c@`Aq@TKRSn@c@j@Ux@g@bAu@b@c@^Sj@c@NIVU`Au@dAeA~@g@rAeAx@u@h@]z@s@`AcAl@g@PUjAwAZUv@W`@WdBqAPQZi@TOTYVOBOAKy@yAq@oAIWGEKBQReAt@WZi@^m@j@_@Rs@j@m@j@}AfAc@b@qA`Ay@x@aEfDc@X_@\m@^[XsA|@WVaBnAg@XOLIDwAbASHsA`Ac@T]TUVIDIASP{@\_CtAiB|@cBfAgCpA]J}@d@
21949232,183,진옥자전거캠프-수락산(덕능고개갈림길-수락산주봉)(JOBC),1789,3965,0.75,16.0,37.692572,127.084517,37.697705,127.081553,uixcF_{jeWg@Dg@JgFjA_Dd@aDn@oANoAFiCVcBTkAV{CVoAN
21090774,184,북한산 둘레길 4코스 / Bukhansan Trail #4,1787,3134,1.45,-2.9,37.621057,127.00727,37.618661,126.996838,}eycFmoheWQS}AoA]]Uc@c@cAc@mAMk@Ik@Mk@OkCO{Ai@_BYe@s@_AMSoByB]YWe@gAe@w@cAo@s@]GU@CAEW?m@GgAQA]Jc@Da@OQi@_@qA?MRYh@UlB[~Ai@GGYByA?ACCM^Q^EdE{@d@CXKh@KXIf@EdAWf@EnBYpB]jAOhASd@EhA]`CM~Ce@zBc@bAWdBa@|@K`@Mb@ElAGfAa@d@MjAUdA[pB_@d@OjA]t@YhAYpAa@z@]fBk@zFqBl@_@j@a@ZWl@w@XQd@IrACf@MxDkBbAm@dB{@rBkAf@WdBgATI
26075586,185,장지천(토끼굴-탄천),1784,16310,1.7,-1.3,37.479789,127.134413,37.477632,127.11785,wqwcFctfeWKeA?q@Es@e@uAQ[]a@q@i@e@{@iAeB]YoDwAsAm@kBo@YOMG]_@c@q@e@yAKu@Ee@Mo@@uAEm@I][k@?Ke@{@]a@g@g@kA{@o@o@YSgC}BmEkDaCaCk@c@_C}BQ[Qg@Si@CSSqA@YWaC[sBu@aBiAoBaAsAeBoBWSAIB?FRp@dA^v@x@n@d@l@z@vAt@xATv@Ll@RpBCf@B`@VdBNh@\|@V`@`AlArAjA\Vl@j@^Xj@f@lAz@tHvGp@f@d@ZXXl@f@Z\d@~@N`@Jb@JzAA`@I^@r@`@~Af@fAZ`@ZXl@\tFxBjCnANJlA|Az@tAd@`@^l@\`ANpAF|@C~ADdAMvBUl@_@pBOj@ILIl@Ur@K~ADp@Lj@h@tA?Hv@fATLRZfAv@f@Nl@DjDJpHXj@Ht@Dr@Hn@An@Nf@@FCf@@~@Hf@HjA@ZB^?ZB\ArBLpANp@DtALjGTlAHx@?pBj@lAXhAPh@RjAz@xAnAbAhAn@d@tA~Af@ZV\x@x@t@j@f@Nj@JZDb@AIG]E{@Oe@MUOk@a@mAkAYa@cBcB_@[KE_@a@mBgBg@a@_Am@u@Y}Ce@UJI@MGID_@Sc@QuBYeAEk@?oAOiBOg@?sBSQCOBs@CkIq@i@ASEsACeCSe@Aq@?{AQs@@sAGcDGg@@{@G{@UOIs@m@i@o@Oa@Mm@Sm@Oo@IiAFeB\iAPsAn@kCNsDKkA
20171242,186,성남종합운동장 3바퀴 반시계 #김진성,1774,76957,1.3,-0.1,37.433182,127.136698,37.433102,127.136649,wgzcF_feeWUCEGMa@MQIm@KYOUW}@S{ABaAA[MU[}AEe@m@sC@MCAUyA?a@H}AAu@B[CEC@?DAbBGj@B^V~Ah@jCLzARh@\nAAfALf@H|@L\Fn@Rf@Nx@\v@BBF@?IKO
19460546,187,진옥자전거캠프- 수락산구간1(JOBC),1753,3684,2.02,17.1,37.682474,127.093372,37.691054,127.085615,}fzcFwmjeWIBg@@c@HMAmALW?c@D{@NOLCHg@De@Q_AYe@Mg@Ic@QiB[c@Ce@Kg@EOKJBBIc@OkAQe@QkAYc@Oc@G_EmAe@Im@U{Ba@gBc@s@UmAY_AOmA_@kCk@{Bs@g@Ea@Kc@Kg@Ue@As@_@c@Me@Kg@Ea@SUg@c@GkBs@a@Wy@w@}HeG}AwA}AqAw@u@_@WkAcAyAwAs@i@_@a@_@We@Ke@GwAcAYyA_@[gBqAw@y@gAg@Ie@EF?HLXp@b@b@TbAv@bAn@Nd@Bl@FLTLhBzAb@Jd@Bb@V`CtB|@|@r@l@lBbB~@p@~@x@hAx@fCzB`An@rCbC`@Xd@RbA\\XnBn@`@JlBv@b@HjA\hAb@lAVh@B`@LtBv@x@Tf@FnB`@THbDl@^Pd@Lf@JhBd@bAPxA\nBd@d@RjA^\XTJNq@bCn@pBr@lBh@~@d@b@Ed@O^[HKd@M`@ElBDGh@d@HdAM^[@K]Uk@L
6377278,188,Segment,1739,3242,0.54,17.0,37.426218,127.04191,37.422971,127.0429,}zycFwateWMfAIxA@b@J\Vb@NLj@LX@PCNINOXg@Lg@NqA@_@Fa@?c@Di@@c@F[Dm@E[EQOMKQWQGCQCY?SBQFQJUVMPI^GxAK~@
20171248,189,성남종합운동장 4바퀴 반시계 #김진성,1737,55384,1.72,-0.1,37.433182,127.136698,37.433154,127.136703,mbxcF}fueWmCjDu@lAeAvA_@\{A|A_@\g@Z_Az@c@XkB~@gAr@cAh@a@Z]^e@XaA`@QXQh@Mp@Ev@Oj@Wd@Qh@Gb@
6031991,190,매봉-이수봉/Maebong-Isubong Ridge,1736,3271,2.56,-1.5,37.427874,127.043499,37.413624,127.046565,aixcFkjqeWBIGABIECAQDI@UAQQe@iAgBYmC?[Qk@_@cBSk@Mm@_@_DOk@K}@WaAM]I[u@{A]aAYc@Sk@Qe@KcAi@i@[g@WKe@kAm@o@u@iAMIa@c@AUMq@Uq@
6377278,191,Segment,1733,3451,0.69,7.0,37.661484,127.024548,37.666246,127.026041,saycFsdseWJNr@j@LRNJl@h@HJJVJx@JVXd@GF@B?T^R@FFBFFDf@DFn@ZDRF@@PFPNZ^l@CX@PRTTPp@~@^r@XbAFh@h@tBr@~DDZXrA`@tAPVZnBFVNTR~@Xr@Fj@GZDX?Z\z@Db@OdBQt@OdBu@|RGLG@CFCNINEf@IXKRIZFDQDKHSTQJQVYp@s@fCK?OGDEc@nA[p@iA`Ba@x@m@x@}BbBa@^[PQPo@`@]Je@VIFAJ[RwCbAm@BmATY?_@DeAd@]JM?OH
6377278,192,Segment,1727,3978,0.96,8.9,37.677105,127.031472,37.684637,127.02996,q|vcF}tseWJQE_AAWI]Bo@KiBOQMm@@OJWACCAD^
19965815,193,진옥자전거캠프-서울둘레길1구간(불암산계단구간)(JOBC),1707,3225,0.81,8.8,37.647783,127.088964,37.642666,127.091587,k`ucFsfueWFJFFFAb@q@TIj@a@BGEOe@c@K?QHS\QLOPK^BLFJ
6931547,194,덕능고개-수락산/Deongneung Pass to Suraksan,1702,3517,3.7,12.1,37.677741,127.092214,37.697857,127.081463,qpucFsdueW_@AOEY[Qc@gAiAOE]@IIOCUS]MqAQYNSFM@w@VS@a@CI@SAWFQGGH{@q@UYCQEGCA
20171253,195,성남종합운동장 5바퀴 반시계 #김진성,1688,42656,2.14,-0.1,37.433182,127.136698,37.433088,127.136686,qtvcFk_ueWDCL]Gk@HWBSDAp@f@NIJUp@c@VUVNCOIU?OGO?EAEGCAI?IJGN@NG`@Dn@_@`@Ep@WBKEIZu@@MFA
21780875,196,진옥자전거캠프-관악산(낙성대구간)(JOBC),1687,3316,1.2,15.1,37.451958,126.967995,37.445418,126.96444,erycFyateWMz@MvAAr@Cj@Kp@Ef@Id@Df@PT\PxCp@THBHBb@N\Lh@Cf@Qh@Wb@e@Ja@Cc@BI?kAi@Y]Sk@Mq@?i@EYYe@SOYOe@_@eAcAoAcAMG[Ds@ROJYFI?CCKk@Ek@_@eBEiDDm@`@oCPk@b@eCRUj@LvAFj@i@LEzBg@d@?T@f@AlARXPIf@WpCGnASrAKzB
29622705,197,6.달갈부리공원까지 신나게 달려봐! 살빠져_Team KFC,1684,24538,0.52,0.2,37.637194,126.875233,37.641689,126.876629,y_zcFyaqeWSUK]UQU[Oc@a@q@i@[aAaAW_@AGy@aAeAy@yAwAsAmB
6377278,198,Segment,1674,3253,0.79,5.9,37.66161,127.023926,37.6614,127.01793,_wucFur{eWDb@HHDb@A^GVO\_@RUDMLYAO\Cf@Sn@Cr@E\BXCRUd@DdAIZWh@GVAROPAJNVRRpA|@f@LPRh@TVPNNNDDHTLv@Z
38713434,199,bridge to bridge,1660,25359,0.81,0.6,37.649508,126.889656,37.651663,126.898257,moxcF{g|eWDGIC_@JM@GDe@Jk@Cu@FYCWFW?CDQ?w@Nm@?cCPk@T[FOXOFYVm@v@o@f@c@n@KBUN
26492636,200,진옥자전거캠프-청계산(쉼터-옥녀봉갈림길쉼터)(JOBC),1646,2759,0.96,25.3,37.438545,127.050781,37.432082,127.047278,i_ucFueyeWt@aA`@a@d@Gf@Fd@AbF}Ab@Wd@S^Wb@Sd@Kf@ExB@lAKd@Kf@Cf@@b@J`@T`Al@b@Nf@DjADtBCf@IfAe@j@KrBXb@Rz@Pb@R`Ap@|@|@bAt@f@NhANvAZz@HbBr@dAh@fA`@b@XxAfAPH?Cg@W_@[e@YsF}BoAIu@SuBWc@W_@[eAo@mBaAeAa@aAo@e@Og@GkANiAZkAHuB@k@Ci@Qg@Wq@g@YMa@GoB?c@Be@Fe@@e@CmAFc@NgAj@kAVaBr@sBv@SLg@Lk@@c@HeAp@Y`@
6377278,201,Segment,1642,2716,0.36,17.3,37.471896,127.053617,37.469363,127.053079,alwcFyv|eWEJQDOJ{@Zi@z@q@f@AZUl@_@^QJQF]Ze@ZMNQJ_@^i@Le@Z_@b@IXIPONKT]`@QHg@CSMMOIWYg@QCkA]OMc@KQMe@FOLMLg@HWBg@VSCe@?S@}@Pk@AQJQDY?WBQHMN{B@o@LSNq@Dg@PSNQD_AOOQQa@m@gBOSc@kA_@[QIOQCULYCWe@UMOe@MQMqAL]ZQDSLKPQNOf@OPSAOGe@?w@Rc@VWGW@MNIROPwAZMOGU][SGqAJKQUi@OMQ@
19965794,202,진옥자전거캠프-서울둘레길1구간(학도암삼거리-불암삼거리)(JOBC),1639,3174,1.51,6.8,37.652331,127.085063,37.642707,127.091563,o}vcFksveWVeAHe@ZoERgA@]VqBd@_BJUx@g@LQN[TSF?p@Sj@Cr@Bd@PdBpAt@p@TN\\PXX\P\XbAn@pFPf@Xh@`@X`@RfA^v@RVBh@Ah@M
18935033,203,[Tom's] Rose Garden Climb to Gate,1638,2590,1.8,7.4,37.610596,126.94129,37.608282,126.951203,klzcF_~zeWASBG?GJQXI?EK[Q]EWJIDOLEJKF]@WIm@BWCERg@SA?GJo@R[~@m@NSFQ?c@Jc@FM?G]@@Gb@w@@GDCTCJGBEAOSQAYSi@TEDCBEUUKYEC?_@EUKGOAFs@NS?g@CWf@IPAUGK@CBL?DDCNEBMCSMJM`@MOGHSL_BHYHIPGNOPEHK
14482047,204,Gwangmyeong Athletics track,1637,675688,0.42,0.0,37.461863,126.872239,37.461878,126.872204,i~ycFwi|eWQa@UQw@@]A_@s@?[DQLUFUXi@h@g@\_@BI
18644699,205,호수공원 휴먼레이스 (new) (4.8km),1633,13028,4.82,0.0,37.662823,126.761535,37.662925,126.761545,odvcFecweWQoB@QKy@AsB]eCI_CScAIw@Aa@Ki@Cc@?_@Mc@SeAOm@?MFk@?_@Ew@GMIyAKm@G{BBy@E]KQ
20824836,206,서울식물원(CW#01),1625,33522,2.33,-0.0,37.572144,126.833395,37.572141,126.833395,gnxcFop}eWQ?YTYVYd@SPADED[HOVKF[?STSJIJEABLGTEb@QPKBKFELEDe@VOZ?^CDQHMXcBTCDKDIJQJAFWVQf@IHGLo@Ck@Bs@VMT]XSTo@d@yAj@[FQPSDIFWVQHIFm@Rm@p@m@b@i@lAc@^G@CFOHS\{@lAAD@XIPYP]d@KBa@Qa@BEB
12368034,207,I love apple pie,1614,2987,0.16,2.6,37.513505,127.060019,37.513766,127.058535,q|vcF}jzeW^@n@GrAY\?\GXK\CpAA`@CrBk@ZEb@AlAYz@G\IPBLAn@[`@KlAQNG^CJBVAx@DjATTJRD
7150890,208,△북한산: Baekundae Gate Climb,1608,2367,1.93,21.4,37.658326,126.991023,37.657727,126.979624,slucFkg_fWJd@LNP@PFJPVENFNN?WTBPGDE@IJAJOTFHALQPG`@WD?LLBAHDLDFFFN@J?NNLFVDd@P\LNx@RBHHFD?LV@@BACX@BPPBHF?BDB?BHANDHPGHHJTJDBFJAB@@HEHB@JALPB?FFAHFFBJVDDBH?NLV@TJHB`@?HBXDDBFV?TPlA@ZG~@[`@GT`@FJNF??BPFFJBLJNB?BECEBCLI?OJ@D]JAFGHSLKVg@DSDC?CIGAONW?EB?@EHBBBB?BA?OVSDFH?DELDP?TPFR\NLPZABCTNP??BD?XTNPLFZBFDN?LDLTJx@FHJZFFJV@JALIT@JN`@CXF\HDDHHFHRVNBJHFNTHT@TFd@JVx@b@`@\JRDTRZFBXh@z@^LJDJTRHDX?HHL?BB@CJ?DBJBFHHFJ@LHXANFFCHIFAR@JFBAB@JNEZ@d@Pb@DJ?HFNFHP^FDVJ@BP@Z\FCJHRAVd@JFD??DLFJLNLB?FDJ?TNHFXb@P@PNHALDn@z@BTFFHNLBBJF@E\D?RVF@Nl@JNt@Bj@GTIPFH?ZZLBJC^FBCLGJ?JEd@@\S^?HDH?BEVAHGJQVUFOLMRAFCTCn@]d@a@d@UZW`@ATI@EJ?DCNAAEFADIAOBMAEBIFMEOBCLEHG^ALGLMFEH?\UF@NMPE|@MJ?FDTMNBNGDGBKHKDOTUFSV[HEBBFCFED?FEFKXCLGNMFSFMVOJKTAHEHS\[DWT?BE\?BCJD^AJBV?NGH?\Xt@AFBHCN@HCH?FBh@AHBBHHD@DN@LEPPb@PPDLL@\LZPT?`@NRKVFLDB?NDNHH?HGBCBHAHR@d@FBLLB?@LPj@F?DDD?@D@?BB?JLLDPTj@?XBJAP@RCDK\@TITc@h@GL?N@@BAH@DVR^CHHTTPJV^f@?LC?AHHPHAAHIVB@XADBDNH?DF@A?LBDDAED?JNDDNLAF@^?BAJ@LNZ?LMVBFEL?HFJ@FINg@NKLBFBP?NGVAPIb@ERBNI|@_AHQ?Wh@KNO\GPBPHJPPDR?b@TPILOJWDUPGCWMSA{@BU\c@@m@DI@Kn@mADU@WEUg@w@GUUESCOMYa@QGc@}@SMa@m@OISi@_@a@GU[WOQSJOQI[My@ISEiACIBa@Ee@@UKeANKRGFWTe@n@m@Xa@PIFS\a@NKHQ?YNMJW@m@JWD_@POHSNMLSLk@@SFGLe@D[Aa@NMHW@m@FYXa@AYDGAM@UHs@HSGSLONIDU@WJSPIJQPGRAPMTFNI`@NPCp@o@j@o@Pk@@IFM@w@Tk@CMFa@DOBEPGZ_@Ve@LQZMJKBUJW?]JYj@q@T?`@g@`@Wn@k@h@@Z_@RBLSP?RELQNMnAo@NKTm@PGTYN]`@_@Dm@LUDYAo@HSNOJSRk@?YP[?g@HWVe@f@u@XiARONOXg@Rg@RORGHWP[VWp@a@LSHkADY?WCUFw@Ge@?YG[@gADk@Cc@BHBr@FXBn@JR@JBf@@bAEVSj@AZBp@E^IRQ@_@\QB]b@Wf@GX_@`@IRIp@[b@EVOPQNMRGT_@`@Kn@Yb@[`AYjACTKPOl@Yd@GXAVa@TOPIPONSh@KPONIR]^a@XMNQBMRQJg@?SDwAt@SFQ?g@TWb@ONGTgAtA?Tc@XKRQDS?IRBbAQh@CRBXQf@@VGRCVYb@QHMPQHQASGQ@SFSAe@@QJc@PQA[bACPFTKROf@AVIn@?VMPGRCXGT?HMl@aAvCKFYx@ONCl@U`AKVMj@]ZWd@]\INC?c@PMLQp@Wb@OJFVBTEVHn@Aj@Jl@@l@Ll@FRAVb@BRHf@j@PNRj@PD`@z@BTPFDVJPLL`@XNNP?LHPFX^PDJPFX?LCl@c@jAATIRS`AS^?VDTIRH^GZSh@SFW?MDMNQDKSMOUBc@OS@SAQGMMQ@a@WSBQSUm@EKQISe@a@YOG][AU@q@GWKQQ@c@OSF[\QFQAYo@Mg@CUBWGm@FS@QIUQKMOQ?GGSEc@NSGQOQGQAMOg@IS?KQQIYe@QGQk@MOAc@g@QKQQIc@MOQSGOAQIk@HWA[FS?UEWOi@E[BSCkAd@Yf@SNQFc@z@KNQHSBw@R]\KRMNGRMPOFS@QJQCg@LS@e@RsAz@k@DSJKl@BTONSBONg@@QP[RWJORw@b@QFQCOLGROR]ZQHe@JUEc@NUBSCk@LQHg@?QKKQsALe@GS?SOWa@o@m@DUOOMQGUKUa@[OSs@[S?a@SISa@Wa@[g@u@{@OOSQOQ?QM]a@e@uABWGUMO{@MQ?QEMOMEWES?OMUCa@_@g@KSIQOUg@OQUi@SKQQOGm@o@EWMSGY?UMOYi@UIk@o@Ms@Qi@BWEUKW?WM}AOO]Co@WOSq@a@c@KS@SCi@m@OIQGS?QEOLYb@DTKR?VWj@QJKPQHIRMPKTQE]a@OISCCYPMHSHq@IQCW?UKWAUKQ?WQKQQSBS?g@IQGMMc@MOMUg@QCGSQGq@a@a@aAQMAU[]SKSCQOMQIUMQWeAKSOKOGU?a@HMPS@SFONw@Zc@MOIS?SKQm@
22577968,209,TRB - 대모산 GOGO,1607,4092,1.02,10.4,37.476304,127.089101,37.474794,127.07927,}bvcFmd`fW?ZDv@DXBFD?DC@BHt@P`ABp@TjA@XJV?DJXBPFLABDLJbARj@TXJ^ABDPPNFJDRVXb@XPVnBp@VT`@JRTNFN?NFP?LBP@NHJJPHVIJQHIJCH?b@m@RIDEJQP_@^KX]LEPMFC~@AVDDFRJRPh@PJNXLNJRVN@ZNNBlApAOP[DOCKFOBIZKLCPa@l@HNJJ?PADWTBPCb@ENARIVURMF_@^Q@GFCX@^JTDVAJD\AZBNCVCHE?EHSDIBADWFABBJALFR?PFd@PP@DAPCH@PGJBJ?DONc@DERAJGN@FABf@j@RBDNAR@JJ@HNO^OTAFEB?LKPFLIl@FHPBTPN@^NJHBNAJ@DPPBJALKNMDGN?@DAFELHHPTVXf@?`@CP@NFJ?DMHDDJARG?HJD@HH?BEFCHDDEHBD?JCJSJIDBBDDADDJACG?GFC@KDAP@NAHDJ^DDL@LIH?ZHRN?DDH?ND@BJ?JKVNRLBJPZHJNIHODIXKLKBMPCL@DEHCZ@CB?JF?NDNMh@EV?RNJNVPNNBXRPBLRJA@PPVCLIH@FKT@LFHA`@BFD\GXIJFd@IR@DBCD?HJL??h@DPEn@GDINMJADc@BQC[BKCIIMBIEY@KEg@NOGW[O@UFm@AOLIPc@f@[t@KNKFMNg@HMDg@r@MJaAp@g@Ni@Ti@f@@FXb@DNEPDp@IdAYl@A\DP@VAHILOf@IFOHKAUFSTi@`@WJGNMNOFCLKLWBG\U@MLSJEHCj@GPID[FMFs@ROFIJIVCV@ZLd@Fj@?RSd@a@b@MHOBIHGDOEE@MZ?\GRILCLC^Kp@BZAXENSZDfAEFQh@?LGN?TAHSTBJf@n@ZLL@JLVLXFNNl@TPPNFPPN@LFJN\LNJXFn@ZRV^Cf@Ob@EPEVBV^?REPJv@CTGJETBPR`@BTAXDDJ@f@RlARZTb@LXPRPXLTVXb@j@l@t@~AJNHVZn@f@jA\h@^x@d@~@Vr@`@j@LbAE^M\MPc@@UHQPUx@DJBNEVu@\_@Fe@Ru@l@MD]b@CTBLDDBAh@cAd@_@\_@HENCp@BTARITOf@I\QL?h@UXI^UPCb@ONKRSXId@Sv@QdAE`AB\Ib@FVKJB@BZp@HFJZR^HZD\FHBNFf@R\DTLLJDD?HFZ@DJXZNFHCDK?GJKCSDIPTPd@B?FID?JPTPDPNX?HGNBJd@^`@dA`@TPELFDPAJHf@ALDN?XBJFLPDDDHBLBBFJBNPBFHD@NHJDLHLPn@JJDP@NFLJH@TDBFL@b@Kl@Ux@Y`@IZEHLTVLNTFDP@JDLCR@FNBZ?XTv@Gn@@b@L`@AVG\?LO\g@t@?LKh@Bb@GLAHLv@@P\v@DN?v@Hn@Pl@?REN\b@Pr@JLDLh@j@PJVXH@TL`@Z`@FVADDFJPh@?PFRFt@JX|@j@T?d@^TLNB\XZr@\j@@R@BBRPT?HELHTF^ENIPR|@Dh@FV@d@Rd@?XDN?THPJHDLJ`BBFf@`@TVB^ETBPFTR`@DDJAHHHPDTJF|@FHHLX\DPFAZEJq@t@GZE\RjAAf@T^D\Xb@RNPH`ADFBDLDBXEFBJ?HDPX?RJRDPTCH@DHLBTHL?FFJD@DH?HHHPZXB`@JN?LH@RKH?b@b@XDJJR\@NAj@HHFRZV`@b@Ph@TPhApATBLL@T?\G\DH\\HNDPATBLVRRBTJPPTUV?NFRE@?HLFFV?PJPT?PAHEDBXITEX?Bf@N@D\HFDZHPNh@ZRNNFHHJDPXLFT?`@LNJFRLHJ?p@t@PDP`@TTHVVTDNLV^VHJHXPTR^Xv@PLRFHPFVZ`@DPP?DTDAD@?BJJBEBAFFH?BBFPJDLNTDFJNB`@PPANGHKH?LFL?HEN?TFRTF?JDBLVj@TZLJ\?NFLAVIF@JHDTVNFHVh@JDTAJBVf@Lj@DJD`@Ab@NFBVCF@NJXTXLXTvA@h@Rh@I\Fl@Ax@Gv@Ib@?LPLJBJLTJDFPn@APBNCJBDDXAN@LBDCHJFXER@FBDHB|@HNVRLh@RLLDTBXVJD^ZNFZAR@JBZCFD^b@Fb@d@T`@JZVJTNJLj@JLDf@J^XVNj@F@R?DPAHTAPHH@RCHGNCJ@BB\BPHZEHEFG`@GLI~@OVWLUPQLW~@g@FAPBZRBLDFFx@LL@H?^JRAPHZFB@TDDCPDLLNBLCPATBDHBB`@VHV?XGHEF@^VL?PF`@FX?J@LNFDHh@NXAh@BHL@ZGZFPHRXF@FEBOR[RMRG@GLQf@e@DQLK@IJOFC@GJMHS?CNECIRIDIFCJONCLGBED@@?DMGGOABQE?AC?QQIBMG?DI?GPYGUG?CKA@MGSECGBKQII[GCEGMGGGIUAUDIGUUg@COU_@CMKOQIGKSMKOGWOGKOECIIISMEGBEABI?BAEDKEKBBAHl@NPNn@Fh@P`@BND`AKRLJBLAN@d@Ol@Mf@FZT^Hv@?PD@ALS@KCm@B]?WHs@A{@f@m@DAD@DALWRMRU@a@AUBg@BK?YLGLFRAr@Qp@FNNH?PMLEZ{@H?JFT@ZCVQNYDSAUEMUQSYa@a@g@{@EKG]De@@CRSTUJET?d@MLDVBj@Pb@^\f@JABB?C@@HMFO?KI[L}@BKHERDhA`@FA@KNOj@HDHD?ZARBTEHCh@AXGJEDKK}@Ua@MK?EBUAA@QN]Jw@No@GICOYMESASHGDAGGJUGE?IOU?EFKHGBUEOAO@CAEFUFGJ?@EEI?IEABGACDK?UBCFSDC?EFG@IDA@KMYE_@K[GIA[GEMQ@CFE?MHE?CEKBQEA@CLUFG`@QNCFEF?LOBKNEJMNADGBFN?XEJ@DIHEl@XD?LGFGBG?Gc@_AGi@DMPEBGHINCFENY?MDIBY`@YJ?VELHHBFAJEL@HEZANHL@\TJDVVd@HLNFBj@A\MDI?GJOL_@LSHEJ@FCFBLANEH?HINDLGAODUAYHId@E`@RNEFO?UP[C]m@u@Sc@GYM[Ei@QUKCGQGII[QIK?IG[uABOHKFEHAl@_@RGRC^Ll@YRSH@NELDLERLr@ELJ?DJHJP?VDj@PVDRn@e@NIJAZWJENCBCDA?BFCD@?LD@E@HHCL@FEFBDLB?DL?FJFAh@LBAJFHEH?NEJBDADDLDVVPDDH?HJ?ZH^CVKNOHEDKF?HG?@L?\DHFB?PEB@DADGTELBXNH?HND@t@JBBNDDHTN@DGZ@NNDFHDh@FJD@DFCR@BFD@RNX?BHBFTDAJFBPHBJJH@JDLNHAHDRCRMf@INKRGLULHT?THHADHRCLDJ?TNZLRADC^FFAFQTUFO?QEE@SHM?GFG@KHCD@FEBGHA@@JMZCDMCEDGDAKGCE@KGMIDCKG?GKMK?OBQCMFYACFQAEE?FK?KL_@AGDKAUA??CDMTEXDNODICW@ECI@CJENg@Rc@NGBEPGDEDUBA@KFUDWFUHIE_@BOZSJSf@_@LOLu@d@o@HUDc@Em@Mi@GKGa@@GASQs@UQGGMe@OIIQk@k@Mc@OWIGM_@QOAO?_@FWFE\@HCBEDYG[@WEg@EIIe@QWM[AQLAFQ@WNGFIJ?HEDBP@LM^QFBBA?QOe@EWBEHCBGH]FIL]B]AW@WHQDSE_@_@cAI]KWIa@_@_AQ]YKESMIAC@OGe@?_@BOAa@GYEEIYCUKW@YDUEKAQWu@Aa@DQFEDMVQFM@WBG@UPuAP[D[LKD?JEb@Cf@BNMDYAQMUQk@?EHYNAHIN?DGB_@CMHSAKa@DACFMAKEIICQBICOa@EYQOUGUNMCy@f@EJKEGMWSIEIAEIEAK?MFGAQKQGI@OJG?II?]CMFMD[Ce@FQCM?c@HwAJc@HMBw@RUD?BCVI\?RCN@PE\_@HAH@d@]FUD}@FIBQJY\w@BCZELMd@QROHKD]?e@Hw@FYCOB]Ji@BELGPMPAVKRu@NOLCJI@OEOGG]Oe@_@GQKQIc@M[y@aAAEKCeB{@i@OWDu@XE@WG}@q@IOa@a@]SKAEK?BCBG@SCOEWCcA@k@C_@]UKY[{AkBIQCO@]Gq@DSHGVIhAw@p@u@J[VOHQ?MGk@EIIOc@e@GUMQ?EWu@WOEOIEEQOy@GQ?q@a@uA?SGm@Jw@AGKMAMAe@E[EIAMEIKsAMk@Ak@FMBy@Cm@@MDGPAHED?DKGQ?IBC@KAMBG?KL[?MBECGB?BG@k@H_@?OB[IOE[EE@GKU?QOy@@OCOHYAOFUCQJUCOWa@@g@CMDQAK@YCGWG[[KIYGg@WSWFUJONKRg@f@WRMNUJCBa@HKDQ@]A[My@?]EQ@SEGQKE_@OSKm@KYQ]YQCG?MDOK]NKVYh@ODYEMIGAIIGMS[oAWWOKCWEEGQUAECKGAGE@CGe@WCEEBG?ECCGA?C@OKS@[YS@OKAE[IKIIBUGa@[MSMHOE_@FSCcAVM?@BG?MPG?OCMKYMIK@UGOAYEAIMSKOQOSIQA_@IQA[GOAQMi@@UIKGWECCKA_@CMc@cAQBCFe@FSCg@B[FgA[YSm@o@c@]G@IAQRUHu@Eo@Lo@EMEMMKUE]S[CAE?CDODQBQJg@dA@GAAM@UECK?[FSCSBu@CWBULQ@IECE@CS?IE[@]BOA_@IU]_@GUCAM[]m@KGWEAACYEI@YIQICI?KEC@YWMEGBKNBHGMEAOBi@\QEIBMN?DMRURKBIOCQFy@HMF?FGNCJIHQJe@Tg@F[FO?OHWCG@?BIASIMKYMMGASYKg@OWG]AQOIIQBIKi@Ag@EQE[@MQo@GG@Gi@_@M?SKEBKEADWi@]DKEG?ECAE@GLWSKG?O_@g@i@O@AG@KCSDOCOViABSACQ[GGc@EQKWIM@MM?ID?DMEE?IIKA[AMCCC_@FQAKF]?OOa@Ga@MQE]MUM]F]FGBMKyA[QGKQKQUCMMMU@UKM@QGM?MJENe@NK?ICQDIKD[JWR[Dc@?_@FSAWEOCA@MEIEWWSIQ@a@BI@i@CMDOIIMUA[@OEO?GH]?_@DUU}@O_@Ii@U_@GIYKO?YUEMOOUk@Q]IG[i@g@]]AG@QZGB]?MIKFY@GDa@DSP?PMT?LKJQFAHMLEAGIMCG@CKKOOGG?SFKE]F{@@EBK?GEIc@@e@EGK@MWGASc@?KM_@Gi@?[DY?OEi@G]Ag@E?OJI?KQ[SQEIAFH@FC@Ya@Qe@a@YEICMFC@]I_@?MCSK[EASDKQEAEBCCCBEPONATGLE?EHAHIHO@ELECo@RKHCJGEMHG?KB[@KIE?MDQAGDM?c@TQNE?IFOIE@EAO?ECC@IIQ?EBGAUDU@GACD]DCBM@_@@KCQFMCOFKEu@PGFODMCE[EMKEMBKUg@][]Wg@GYQEKSOMMCS]OOu@Oc@Um@Ao@Sq@e@YEMAMDCGYISAQEg@e@i@SQUQCMKI?GOKCM@a@KGCGISS]OG?IFI?KNk@@QCSDU?OCKJGBAFC?EAk@c@_@MEHXLRZ?HUh@EBM?CJKJMBK?MSKIWs@QEKOWQ?]C[OIm@S]C_@IKIY_@g@SOKOE[QOY[[M[]_@_BuA[_@MEaAu@Ya@Y{@[q@Ki@CKCCQLWFo@Ta@ZuAr@[ToAXiBbAe@J}@Z_@RUFw@d@a@HUPMBm@`@c@Rg@JGFEHi@`@y@~@[Pa@Zo@n@KPQ@KLWNMNGN]XMDMJc@Hc@Tc@BQDIFy@R_@Fk@XWTMD{@d@WDs@VYPQBQN[Ra@PGH]R_@JYVE@g@ZUVYL[To@\aAz@[^g@R{@b@_Bl@g@JcADcAC}@O]KeCk@_@EU@q@KiAWi@A_@Bm@My@Wc@IO@[E_@@o@EUH}@@e@He@Iy@JqAZqAj@]HQH_@JSDGAMJI@YN]Xa@Pc@d@u@l@U\]`@[f@KHU\gAjAaAbBy@lAKH[f@[ZODIHy@d@YZ[L_@Zc@Ta@^SFYV[HQJMBOCGFWBe@RINMJg@Pc@Ne@DUJK@UNm@L_@Pc@LUNY?c@V_@\UJ
21090683,210,북한산 둘레길 20코스 / Bukhansan Trail #20,1569,2890,1.42,0.9,37.662141,127.024581,37.663169,127.012858,krvcF{x_fWETM|B?d@GT@r@F^GxDB\A\@FQpAC~Az@xCCj@[l@Dj@^h@Vl@@TTbAHzCGZT~@G\@TFJN|@r@nB@PRh@Ll@PMV@PPf@n@TBJCl@CPDv@CxBkA`AQ\BLJZNXVdARf@FdAAbAOt@SjEk@\APLtBv@NDNCxA_AXGp@Wf@EZMNCDBHABCXOF?RYHGZ]LIh@cATSFMLMh@[LCDMNABENIb@Q^[j@LRPR\L@JKHUHIFO@ER_@RQDONUFO?ICODQPSDBDCT[N@PABDD?PJJLp@d@LBLFFCFDN?r@Tn@XFFJDb@`@Tt@@LN^H^ER?JXdBR^j@`@R^RnALRrAnAhAnBfBjAVJ`@L^F`@NJ@HBZ?PDV?`@HJLCZRrA`@t@TTPJ`@Hn@TTb@v@p@z@`@`@Xl@Zn@l@Vb@XXD^^n@HLHBd@b@RBdBCfAVVAhBWf@@n@IJIBMVOb@k@x@QzAu@v@i@h@SNANKDOC[FO?OFId@K`Bo@b@[VGr@EVIP@PEl@aAFSNSl@WJKb@KTQR]x@g@t@i@ZYXEbB@THZD\AlADXEPBTZf@VNCZLJ@LFFPCPDR\^L@LVVXf@`@FTv@TVTNDp@Od@@VJDH@f@IUG]N@NLNB?FHLKJEJDXCRCx@\xAr@@V[`@MNAHFPAFd@A`@Lx@CVF\`@RNLg@CUo@Am@PHJNF@F@PCDPZRH`@LJDt@BHDD?NJLD?XKJF?J^INNJAHJTBNCFDm@j@Yr@MHGBCCCB?DORUPMCKFGAMIIAYJADC@KAg@BOEWZM\CBG?MEG@AEC?KGKAKDILe@F`@CJEb@A^FFCTu@LCTDl@DLK^BPCD@LCVQd@a@JKVg@l@o@?CIII?G@GCMOAMIGGDIBSYKE[TEAEIYSGWMSOBc@QM?MGQe@Ea@@m@D]OgA]?EBU@@ISL_@Lo@IOSGS?[GI?m@CIBSPg@GE@EEIK?QQSGW?GCODi@CEEQCMKYGYOcAeAKUM?CKWAYYCU?WMOSGKMCAC@IKI?CGy@SEGMC[CkBBm@OQ@eAEa@B]F}@v@k@Zo@z@UNIBQLg@NONc@r@GZSPU?OLg@?[FU?KBYPoAn@W@[HCZEFCP@VKJi@ZKA[HkB~@SR_AXm@r@q@RGFETg@Am@NSCaAPm@@A?MMIAUMwAF]EQMQWGQ_@WDWCKOQSc@cAgAOI]I[]i@UmAgAGKKISEc@QCGg@IYYUg@Oo@G}@EG}Ak@S@MCg@UWAq@Qg@]UKoAmAO_@W_@kA{@_@eAOg@]k@GCo@s@EOC_@Q_@ECAI?a@IWGy@IOC]CCA[GOq@WWCo@e@e@K[AEKKCUAa@YOQICAA?CGEGEKAEEQ?QDETGBCAEJOJ?HBNKJCLO`@QRQ`@E@IJCLE?GV[b@OFOk@Y]QC_@JI@OFKLI@KLy@LU\SHSZSNMTMLKVSRADIJIVUV[Ha@BOFW?w@X]FURSFGHI@ILQFm@EY?e@MeAQ{B?e@JWBKD[Fm@V]FsAHmBGw@a@o@c@WGO?o@LsAn@k@b@g@Ly@M_ADa@]o@a@[AIDIAq@cC_@m@EQCm@B]QYa@oBK}@BSCUMWOkANo@@q@M}@Aa@_@mAYmBBWAc@Bu@Ca@?cABGE[?e@B?@ADsAEcABWC{A@a@Hg@Cy@DW
23256995,211,휴먼링 북-남(시계방향),1563,32405,1.45,0.6,37.481834,127.147366,37.469338,127.145626,_ivcFq_~eWLD`@IZ@RL^EZOpA_@\Yx@c@\?TNTVVPPFt@L|@HpAAR@PLdAf@Vh@
6377278,212,Segment,1544,3678,1.06,11.4,37.47763,127.095573,37.475564,127.085554,s`zcFqhdfWHZJJb@x@HJZP^@JNh@`@b@RDl@?NEDG?GTBHX^@LDH?h@CR@JXj@BHCD@DHR\X
12287096,213,Seonjeongneung Hill,1539,11497,0.48,4.2,37.509059,127.052889,37.510888,127.04891,myycFi}cfWABDLCFERBJLBLECJ@JLXFVb@l@?DDDANLVJD@JFNTLb@JVBb@VPVLLL?
21202028,214,진옥자전거캠프-서울둘레길3구간(해맞이광장-상일쉼터)(JOBC),1537,7367,1.62,-1.4,37.52858,127.15266,37.538757,127.16274,c}xcFcycfWWZG@EAKMQc@KGUA}@DiAAWBIDQPc@lAu@z@MHm@Bg@Ja@?wAG[OO[
3141365,215,개포4동 산211 4 Climb,1533,3820,0.58,18.8,37.470672366871966,127.06812992238676,37.46932016463988,127.06241067727572,_ovcFkzdfWLC@EEc@c@i@OYQYScAYw@Sg@AOFg@x@aDFe@?_ABw@Da@VYBO
21132649,216,양재천 중앙공원 - 별양교,1520,13350,0.51,-0.3,37.43051,126.994075,37.434098,126.99728,ebvcFcgbfW^mCPgBNqB@_@Fg@@aAHkA?{@B{@C_@?eCEa@B_AKy@G{@W_BU_Ai@sCo@{B
6377278,217,Segment,1509,2307,0.8,16.0,37.65086235,126.9808233,37.65487729,126.97923162,scxcFqi`fWBBPEzC^^Ad@KF@|@RhAIn@Dl@Gf@@n@Ax@J~A@
6377278,218,Segment,1497,4706,0.32,15.2,37.606393,126.985098,37.60439,126.984304,wmycFkyffWh@IfB_A^YTi@Bm@Km@a@[i@Ee@PkB~@_@\Gj@Hr@NX`@T
19512331,219,진옥자전거캠프-수서-대모산(대모산정상)(JOBC),1488,3573,1.27,11.7,37.47739,127.090788,37.47504,127.078327,gfwcFmelfWSMQQ]q@YE_D}C_AiA_@q@e@s@M[aEsH]o@y@qBe@}@g@o@u@mAs@sAy@qBeAgB[y@e@wAq@sAUUM[LWj@a@ZP|@~Af@l@P\x@hApAlC^r@JZ^r@Vz@n@pAt@dB^n@pAjCPT~@jBh@pAvBpDv@jAl@b@pAvAf@f@rA~@E^OZUZ
21312987,220,TRB - 북한산 향로봉 버티컬,1474,2667,0.19,38.7,37.62407,126.951526,37.62535,126.951654,udvcFcikfW]iAWk@gA}AaAmAaCkB_CsBsFaEaAu@qAkAgAw@w@w@qAeA}DsDMQ]{AUi@oAyAq@_A[i@qAiCi@}@Wg@MOOG
13632454,221,KR-Seoul: Yangjae Stream: Downstream-Upstream 5km,1473,10857,4.99,0.1,37.487555,127.055936,37.487032,127.056135,_dwcF{zffWE@Z_@Tm@@KA_@U{Af@@d@N\Z`@VR^t@h@NBv@a@Tc@Fw@He@Ae@ZOt@G`@G\Kj@W
6377278,222,Segment,1468,3302,0.38,15.9,37.481032,127.097738,37.478328,127.097767,ivucFadnfWXMd@[Ve@\}@RYl@Pd@DNFb@Bb@Tz@r@P`@PDHn@JLlA~@
7176502,223,서울대공원 Loop,1467,22465,2.1,-1.5,37.431253,127.009811,37.431391,127.009886,u`wcFy`lfWOQ}AaAi@k@@QNg@NYdAr@t@n@z@f@^ZjAnA`Aj@|BrB^TjClBxAtAf@X`@Zz@|@jBjD`@hAH\?FCABNRRf@ZDr@AHn@^j@p@At@SlAA~@Gl@GLKHc@LUOaDuEMi@Aa@@m@Ii@?SOi@[g@Oy@CWSi@m@wAa@e@}AsAc@YoBoBe@]{AuA_CiB]]_@W[]]SIM
21612765,224,서울식물원(CW#02),1434,13246,1.52,0.2,37.567504,126.832051,37.567485,126.832064,qxwcF}tgfWUkCL?FAHDT?BDl@lA\`@DJb@d@@LRb@?FJJLVFR^j@d@fAZ^`@XNPp@FLEf@Jd@l@?d@h@`@FJBLNPFPRNNTRLFJJF`@JNFn@HbAp@@Fl@\FHHJFTJBLJJBV`@JJVJLXHFl@DdAY`@ELILWl@WJQ^c@j@A
20091476,225,진옥자전거캠프-관악산(연주대깔닥계단)(JOBC),1427,2440,1.13,22.2,37.444605,126.95877,37.445045,126.964149,iavcF_mifWEBE^Y^[TGFCTKNEj@LbA?Li@rBi@fAYTQf@Ev@ILC`@Uj@BTSTCPODGj@[dAKh@Un@a@XW^i@nA]b@Ov@El@BXUd@IbAUb@Mj@Uf@WPSx@c@^QVCP@l@\pARh@Pl@Gl@@n@d@pBBl@Hx@R^Lj@D~@Al@Rd@@`@E`@NZn@\V^~Av@ZDTTD??XLl@JVP`@Z\LR\`@`@V\N^V~@ZHFh@VT^b@J
16194161,226,북악팔각정 - 정상,1426,3555,1.14,-1.2,37.601447,126.980943,37.60774,126.986435,{pwcFewlfWx@zAv@nAp@|@t@z@x@p@fClBvEpEfA~@fBrArDlDbBjAzBrA`@Z\`@zB~Dd@~@X~@XpBNf@HLTPp@TFFk@fCBnBIJYC[Ii@]u@{@mAkBEMS}C[_BQo@]y@Ug@k@}@s@_Ao@q@sBgB_C{Bk@c@y@i@
8079063,227,Around Seoul Olympic Park ,1419,6045,4.92,-0.0,37.51232,127.127474,37.512464,127.128267,svwcFkvhfWrAaA^SxB{@t@SrCkAb@OlAQxEmAbFkAbEwAn@M~@]vE{BTQh@Wd@Qb@UXGh@B
19460470,228,진옥자전거캠프- 서울둘레길3구간-일자산산2쉼터(JOBC),1408,2357,1.62,4.1,37.542126,127.167915,37.53276,127.15706,exxcFqrnfWi@qAq@oAg@qAwAaDSi@u@eCe@qCWuCq@uFcBwPi@_EEo@GcBOo@Gm@k@oCQm@_AcCkBmEaEsFaB{Aw@{@{AyAKGSg@[c@y@eAa@We@SaAs@cAk@e@QkA[kAMkAEg@Ec@Ge@CsBLi@Fe@Ja@PkBp@eB~@gBv@a@Le@FMKDq@Jk@TsCHk@^GdAZn@Hb@BnA?fA_@hBe@b@Gf@AnBQpA?rBVfARf@JnBh@b@TZb@ZXd@Tr@hAtA|AzBrBp@~@z@z@x@bA|BxChAjBn@lAdBnE`@rAfAdGFl@Al@Hl@Pf@Jj@Fl@R|Ah@jFRxALzAh@tDz@dJZfCNl@Pf@`AtBj@pAVf@f@rAp@fAf@rA
19042586,229,염강나들목~안합~염강나들목,1402,5340,3.0,-0.0,37.562222,126.865378,37.562193,126.865397,{qvcF{aufWZ`@BJHNNFFHBAFBBDCBBp@AFGHG\GNBXC\@FARHX?LCTBRQd@@ZAR@LFPJPBLENDFP@BDC@GVDDFBHJF@AEJDBDBNHHABBBGTDRBJB@LR@HF@BDDPLRi@nCA\J^?HMh@Cx@Il@?Z^r@DNFn@@NIz@Jz@DJAr@BJBl@Hb@?HF^DLB\FRNXFVLRBXZn@Dl@CJG?KLGRFRHHDNC@
21967516,230,서서울호수공원 몬드리안A,1401,101545,0.93,-0.0,37.527559,126.829863,37.527572,126.829829,aivcFs_sfWNR@LIJC\AXEPELKbA?p@PDZl@PFNX?LJJNb@HCFJJHFAPDPNLFJC?FRNJRCVDPA?@D@\AD@JFBFPPPLf@\h@BZLHLh@C@FJJPNFBVFAFGHDj@b@XP@FZZRf@b@`@BNLN@LB@BZJNBRBX?b@DZBLV`@HRB`AFN@TNb@@T^hAP^FFBPFJALJn@AhCPhA?`AJd@TJNLDPV\Tl@@LXZRjA?XFZDrAFXRVDPFDN\DVCDHVFH\n@VXDNFF@LDF@PHPDp@BC@DBTAJBJDLKT?NDD?HHZDBDABJHD@VFJBn@Il@@LHJ@DE^S\KZWXDVCPJd@BBBLHPD?BD?DDH@NHP
26381365,231,진옥자전거캠프-북한산우이령길(우이탐방로-우이령)(JOBC),1397,3247,1.12,11.3,37.677923,127.003481,37.683687,126.997577,unucFy~pfW@Jl@`BTh@BLCNHd@@~@HZLZ`@`@Nh@@j@BDV\j@b@^vA@h@IjAENDRVz@@JGT?JJ`@Fl@ATEROX?FBDJD@D@NANO`@?V
39317412,232,은평뉴타운 실개천 약한 다운힐_by Jake,1385,24427,0.86,-0.7,37.6321,126.927596,37.63475,126.920347,}dzcFittfWXSN]B_@O_@Y_@[WQc@MyAQe@OUEGa@Uc@A[Ny@XIX?FDl@J\p@v@v@bBLHZ?RFZTDHHDNVRA
13523379,233,Dirt Track Lap,1372,54172,0.43,0.0,37.527843,127.020142,37.527841,127.020145,cjzcFotsfWQJ}@T]RSRe@@GBO\w@HSRa@HUPSASPYHOh@?`@Bb@L\Dh@?d@D`@L\P?fB{@`B_@LGFUPYh@Dd@GpCaBVAPOBGEQQc@]e@U?_@JYL_@JMA?MHq@NqACEK?
37927610,234,왕숙길벗교-다산하늘초 1K 달리기@StepUpBpm,1361,10623,1.0,0.1,37.62027,127.14461,37.62873,127.145355,_avcF}unfWOc@Nw@BAHMh@U\a@`@qBDc@IOESB_@Gq@[{AEM@K\YfAS\Y`@EZINa@Fm@@Ya@]Sg@@k@RSJ?Pg@ZY`@QJo@LOJo@V]l@wA
6377278,235,Segment,1356,2581,0.33,20.3,37.46553,126.972839,37.464649,126.974327,ezvcFijvfW@p@PtAPzBAn@Jn@@b@Jl@AXNl@?`@Fl@Wr@Gn@c@x@Oh@ANVh@Xb@Vl@Np@Tb@l@`ALXXX|@VBp@O\Dn@\ZX`@PJPNCNDn@Il@Ad@CxABFGTBTIVG`AFZDFPt@J@CNFTVJDJHh@@ZJV
5921966,236,대모-구룡/Daemo-Guryong Ridge,1354,3236,1.82,0.8,37.474893,127.078504,37.469041,127.061876,uxvcFklufWHJD@N^d@|@D?PJ`A`@VTBVI`@Af@J~@FLJHBPJ^NN@h@Cb@?x@F`@LNB\?P[|@?ZFTN^LRLFBF@PE\VLNB@BBLE`@F`@Xb@FXLT@\ATK\?LDTATGFMh@Ff@DL?|@O`@CRFz@L`@TfAGZHfAAXF^?z@Jb@JlA^bA?l@Hd@\`AJf@?FKRCLDn@GVU^IXATBRRj@If@
20983445,237,진옥자전거캠프-청광종주(터미널삼거리-옥녀봉)(JOBC),1340,2516,1.2,18.4,37.448656,127.037621,37.439192,127.035902,y{ycF}vqfWKEMHOMyAuAkB}Bg@Y_@g@SOUMi@OiDm@{BY{@Ai@DqCJsBd@cA\c@Ji@Ba@Aw@MuA]O@KHERGzBOvB@JFNLBb@I^OrA_@pAi@nB{@~@g@fB[h@?t@GvBBlC^bBh@r@\vAbA|@j@xAlAt@z@fAdAbApAv@~@`@^x@nAt@x@rAtB`@v@hArCfAfDHJLA^UZ_@Iq@_AmC{AcD{AoCyAsBaCiCoA{Ae@Y
34663925,238,다산하늘초-왕숙길벗교 1K 달리기@StepUpBpm,1332,10598,1.0,-0.1,37.628775,127.145367,37.620191,127.144606,aqvcFuq~fWU@gAAm@GgACwBQW@cAWc@O}@_@eBiAq@e@uAm@iD{BsEaBMY@yBIuB@oCBk@Ho@A[DuARcARw@Di@G_@s@gBCYDwA@aCD{@C_EBYLQnBFjBNdDCfAD~@?TBNAhEb@nEHlBNlAAl@@rAAdBF\?h@Dv@?vCNhABj@Ff@@r@A|@Dh@Jv@Bz@LhBb@pA`@TH|A`AnAf@PLJRGxBDp@ANg@lBCT?t@CNERYj@GVMp@?XDp@Jd@l@jA@\KnACxAF|@H\GX@ZCl@Op@@^HZNVHt@d@nBt@vB@\g@hAMNkEKk@K_@C}BAa@CgA?qBM_ABs@IaA?gBEe@E{AGu@A_A@eAAaBGe@GMOESAS
29527884,239,3. 창릉천 토끼굴 출구부터 1km 구간_Team KFC,1314,14335,1.07,-1.2,37.633343,126.874524,37.62406,126.873664,k{vcF}szfWKFK@]P]j@Y`@[Pc@\e@Xi@b@SJQVa@Zg@Zy@d@WRs@`@OLIB_@Z{@j@WRIBg@`@o@b@C?_@Xm@h@W^i@^e@n@e@Lc@ZSH[Fo@Zc@Z[`@a@ZaAl@MLG@MJIB[T_@PWRw@b@GHYN]XMB]Xs@b@wAdAw@^s@j@o@\_@^YLqA~@C?IFIHw@h@MJe@VWTa@l@[PKL
23396432,240,인라인 1lap,1305,11384,0.31,0.0,37.644125,127.055908,37.644088,127.055861,_sxcF_twfWLFDKD?DAFDFB?BREVPHd@HJJLl@^L|@HTVDhAWxA}@PCX@d@Rf@L`A`@XRRTBL@VFZNZDL@x@L`AHXVp@RXP^|@fAb@v@FPXXLV
22506335,241,진옥자전거캠프-서울둘레길(고덕역낙타등코스)(JOBC),1282,2172,0.37,5.6,37.554826,127.158492,37.552285,127.159278,sgwcFa}}fWLPb@\lAt@LLRHRRf@ZHLPJDHVPd@l@^Z\lALl@Xb@\n@d@b@N^HFDNJNf@hA`@jAH@VQBP\h@LZP|@NlAJpABxBIlAE~BO~CFRDx@?t@En@ShB]`GOnAO\MvAA\KhAIvAM`AAb@QlBM~@[vAIf@i@`CGh@A\I\O~D
12736942,242,Coiner North Wall - Out East,1278,5160,0.46,0.9,37.545236,126.973372,37.545907,126.978455,mowcFywvfWd@@NCFIRe@n@m@|@M|Bb@j@OPBJj@\hARF`@g@^D`@K
1372186,243,북한동 468 5 Climb,1278,1894,0.62,13.2,37.655618698990615,126.95763833300671,37.65237198,126.96226796,}ywcFuf{fWDb@Xp@n@x@`AzALXPt@Pf@Hh@d@dAZ^NDfAIb@?LKTy@ASB_BGe@Mo@{@wBOaAo@_CQY]y@IIKGS?}@^]F[JSNUJMN
1454507,244,평창동 404 Climb,1271,2202,0.81,6.4,37.61446431666667,126.97956836666664,37.61732928333333,126.97507871666666,_evcFonzfWELd@lAJZ@L^bANh@Xl@~@lC^tATb@f@vAn@zAD?`@OPMNa@\UPADEVAf@O`@YFIfAc@BGTMJY@IIc@[]WOIIIOOc@E[EsAGc@A[EQEOUQS[Qo@Gc@EKYYM[G}@CKMMQCe@RQAKOOs@KQCAY@y@l@c@h@QFOJu@VIHKREPMN]R
18891172,245,산성tr1,1267,2996,0.91,4.8,37.457803,127.150029,37.462855,127.155233,krycF{nzfW@q@E]}@_BM[Ia@ISCk@K]?QHWNOn@_@t@k@r@[b@YXK\[XEj@a@RGTMNAVOv@[PMLCLMRMj@QTMp@Uf@YNADDFLHr@F\Jv@HRR`@Np@Rl@NhAb@zAPt@JZVbAPjA\dAf@tBLXH\Tb@RhAL`@`@t@BL@\b@tAH`@J~@Pl@L~@\|@JtA?l@Ip@GJ]ZkAl@YVk@TaClBe@XMLWHu@d@e@V}@p@[NYZ[Vc@Jq@ZS?IGEOIg@Ow@MaAa@qA]gBEw@Q]Sk@[iBCa@Qk@QwA]iAGq@K[Ii@Ki@M[G_@]aAGUEg@g@mBCe@Mc@?c@K}@G[CS_@}@Oy@_@}@Eg@Jk@R_@XS|A_Ad@_@j@Un@e@d@UXUl@[TGjAk@v@WZGj@Yf@]TIPKPADHJf@\`A`@`ATtATt@D\J^Jr@X~@^l@Lp@?VDZRbAb@nATbBBFVV`@VFJDV@l@Cn@Bh@DTVb@J~@Nd@BXVj@Hl@@j@@L^dANl@LZDR@x@Ml@QHY\m@d@SDULw@t@YPg@RWV}A~@MLmAn@e@d@YLo@R[\U\GF}@d@S?KICGM{@Qu@OoAKYc@k@EOA_@Sw@A_@WsAGi@QmAMa@SkAi@gBKy@Qq@
25882455,246,우이천 근화교(덕성여대 앞) ~ 우이교,1252,14131,2.05,-0.5,37.65154,127.014481,37.642634,127.030883,sjzcF}}wfWIi@Qa@CCUg@a@iCe@oBKm@Oo@M[AYKe@C_@KYQgAMUYwA_@iAMk@?EYu@Me@QqACk@Su@Ge@Y}ACa@MOQ?IBWLeBn@]Pc@Pk@RK@GDEH?PPrAHF\r@Nr@NZJ\PbAH~@Nb@Bb@F^Tl@Hv@VpAFd@\lAFv@FTT`@D`@FNFd@JTBRh@bBDPFz@`@nBBR^`ALTNRRATg@HGVIRORKlA_@ROTWHg@CW
30143937,247,Gachon to Sub Namhan,1248,2478,1.63,8.9,37.457594,127.149273,37.465169,127.158862,}}vcFe`zfWzA_Ap@s@bCoArBmAlBuAjBkAnAy@bAg@|BgBxA}@VKrDgC\S\O`Aq@jAq@nBwAlFiDv@k@|BuA^M
6377278,248,Segment,1233,2583,1.15,9.3,37.69644,127.04196,37.691956,127.033455,oiucFyq_gW?n@Fr@Nh@Zb@LXBn@UjCCfBJzAKl@@j@Pn@Jr@Nh@`AjC^rAGTUh@YZiBSmAGi@?g@IiACe@DkAEoBCmEg@wBCqAFe@Fe@@e@AwBMe@@yBKkAEkAOqB@iAKc@Ka@SmASc@Qg@WeC_BaAa@a@Yc@]eAk@u@q@a@UeAg@i@Ak@Ec@OKc@?_DE{@@eBFiCJuBT_APg@Jm@Im@k@oAMm@BaHTgELYZ?d@Df@?h@Bl@JpADpBPnAGnANbB@f@Hj@@b@Cj@?b@FpBHf@?`@Ld@?d@Dd@GhAMhALpADf@LjA@nAE`E^h@@n@Ef@@d@Eb@@j@BnB`@`Ct@|@b@jAt@^Rf@Nb@\BPI`CD\CTMZWb@Qh@GnAERg@hAIh@
26692997,249,북한산둘레길2 (신축계단길) ,1216,2218,2.22,-3.1,37.64237,127.00233,37.651599,127.011826,kuwcFwa_gWCyAGk@?[Ea@Am@B{@CQ@[BOHqAEi@BS@q@Pq@Jq@Z{@BUA[u@{AGUAWBuAFS@S@iAH}B?{ADaA
39317546,250,은평뉴타운 롯데몰 실개천 직선주로 (남-북)_by Jake,1198,26768,0.25,0.0,37.636083,126.917394,37.63836,126.917224,mtwcF_n`gWZOP?LC`@Bv@AhA[j@Eb@KT?RHlAJRL~A\RPVDX?DBR?t@FTHH?VFp@?BAJ@JAp@@VGb@?FD\?^Hb@@TDDBF@hAIHC^ATBd@Af@Fn@@D@z@?LAJHV?JFT?f@Hh@?B@HAB@BAB@BAR@h@AL@j@IB@n@BRBx@?BAB@x@?DDJ?VPF@dAAz@TH?FDH?PFN@\Nr@PBB`@NRHBDJ@NJXLDBJ@LFF?TLJ@VNd@^@DB?
19639462,251,진옥자전거캠프-망우산순환코스(언덕구간2)(JOBC),1197,6922,0.9,1.8,37.59243,127.115824,37.587053,127.110134,meucFij`gWGl@Ch@?|@Hl@@XI`ACfD[tAMZG|AIVQXMj@Iv@?ZDf@DT`@x@FPD`@K`BCvA?d@Fp@?n@Ab@Mf@?`@Hd@RZD~@FX\x@`@tAt@vBFZA|@FVHb@ITAxBNvFB|B@H@@^CBIEk@GgACoBCw@G}CBaAI[KSBoAK_ASq@G}@FoFAa@?}CGcBBqAGi@_@aAGa@?KHm@Dw@C_B@_BVsB?m@Ea@Og@E[AsABWQgCJYBqAXeCBy@Jg@@e@CG]AILC~@YvC
21639026,252,진옥자전거캠프-도봉산(천축사.석굴암갈림길-자은봉)(JOBC),1192,1688,0.32,54.2,37.696284,127.016588,37.698614,127.015441,evxcFgsdgW?GFUEUq@kAGSAY[[CWAeACWDUCYP{ACU@WPi@@]DUISCWCm@Za@DS?WLk@HSPI?WLOCWNMOKKOCUP?NJAWMMR?Pg@LOFSPIHDESLOH@@CRBPCHSJPFV\Y?WHT@o@NM@G@DD?@K?Q@AF@?OBKIQEWPGBDH?JMJLB?@IFG?KHIBKJMIIN?DGDADFESLL@DBUHGDUQKHHHANQ
9675341,253,망우산 시계방향 업힐,1191,6334,0.86,2.2,37.592918,127.116308,37.587656,127.110407,miycFwxcgWEMBUUu@a@MOMc@SJSBWHQNMFWFIRQJQPALQPE`@Q^[R?NCAWLMREFUHQDWCM@QE]BMASFG?KDEGG?CRW@KCKL[
31161354,254,구리왕숙체육공원~성신레미컨 2K 달리기 @Up_BPM,1187,9805,2.01,-0.1,37.63739,127.14861,37.620598,127.142588,_aucF_dagWCeEIq@By@EeAFWBo@G_A@m@A]@[DM?YB]
40115467,255,관악산둘레길 비봉산 임도업힐구간,1172,2898,0.75,9.0,37.410629,126.933345,37.410519,126.939951,agycFksbgWFu@Ry@HOd@u@FUCWOKLm@s@c@U@EIKGO?WUC?KHWJGAI[UCIIESAg@COGOEGIAUUOWUIIGIKSk@@c@DO`@QN?RFHGHMFu@FYAUHWNQFm@Ty@AMB[HS@MOy@Pg@TmAA[IUCUG]WQSAe@SOUNGBCH[JGNADUAM@UXETYB?NMF?RQNEf@e@PCNKFUPAPGFUDEBIAm@Ie@DSAIDGBOGe@RGHk@K[CQH}@H_@?o@FY?II[MOSe@CC[_A?cBBWEUKUIIQGMQ@e@QYOa@CQIMEWGKAIF[AOGQIIGY?OKQBUISBOAEGC?IG[?c@Qc@@[KQGUAq@HQNm@HOPCBm@NMPFRAFE@IAQMg@DOb@[`@OHDHSH?FMFANODYAWPU?SBS\aARMR?PGLIRYDCF?LIHER@FERCRGJMF[NWHCHMJ?JMNEXQDIBONQRCd@OJGXDTMBEJ@RM?UHSBM
18995662,256,진옥자전거캠프-산성역_쉼터byHS,1168,2327,1.62,7.7,37.457014,127.150271,37.465714,127.160765,ifwcF}{egWEBYDUJGRGHIX@VEd@E|@MRKFCDQLFDADGBERE?CD?NAHWTIXMNMh@MNCh@Oh@]ZEL_@L?HCBUHM?@FYJOAKNMD?NCNKVQTANO\IFM?MFUB_@f@?PEb@ELCRIZFJBNARSDOHG?GESUkAAm@SODMFK?IFG@MCQBMJS^SFEFO|@Gh@CFKLUPIN[NYl@?NK`A?b@Gb@APBZ?RBPCVER?JILMHYF_@TKJAFKHMBGLCNOVEN@HQn@GbA?b@WtA[f@ATMLMDMJ]BIBGDAx@M\Q`@o@r@QZQzABrAANGLY^]l@Id@Sh@Sp@Mz@Qn@Ub@k@d@[j@Or@Gp@S|@ITi@n@IRi@r@O?GFm@jAMPG?e@p@IFQDW@EAQ?IB
7150883,257,△북한산: Ui-Dong Road Climb,1164,2194,1.76,11.5,37.66085,127.006598,37.657528,126.991698,ojwcF{qdgWD?XNR?XHBGFTPLBN^XTFZ?B@VARODSFIBo@DKBSK{@FC?YDSES@UFULSJKJa@DKLBBGBSAGDGAEDQCg@@KB?BKA[D[HUBEB?FO?UCIHM@UO{@MOUi@OOEIYIQKGCKBCGUIQCACJSDi@DGBUDGBYBG?MDGBYDGHgABAH[CS
1620965,258,홍은1동 산1 70 Climb,1159,1960,0.68,12.0,37.60833233333334,126.95720423333331,37.60901666666667,126.95209486666666,a~zcFajvdWc@IaDYk@Ig@EiB[iAGE?QLSbD?nBClAIpAU|BCxAKbBE`@a@jBO`AKrBAb@@DJBP@HBXIf@IXC`@@f@RXF@B~@@zARTFTA\DXABAH_@FyAF{@DaBPuCh@iFLaCd@{GIY
20051823,259,stairs up Ansan,1158,3131,0.38,21.2,37.57489,126.943744,37.576816,126.946886,g}{cFmj|dWZt@b@l@Z\b@P`@L\BpBMd@Kb@Q^_@Tg@Pg@Jk@@o@Gk@Km@mAkB]Yc@Yc@Cg@@e@Fc@JiAf@]^{@vC
25882506,260,우이천 우이교 ~ 근화교(덕성여대 앞),1149,12012,1.99,0.6,37.642901,127.031218,37.651559,127.014767,wp{cFctudWUv@Mn@[j@YbACd@?\DTJLRHt@DrAZj@AZ@bEl@bBJLCDGFSLeAAYD[DGAw@@a@Js@Fk@?e@DOHmCFeA@k@L}@?]De@Ja@DuAFs@F[HeABq@Aa@GG_@KUEo@Eu@Q]EUKeAGqAWYEg@CWEQGQAKBOREHE`@UxAWf@GXCrAFZHZJxA?`@OvBCbBGd@Kd@En@WjBq@bBQn@CVBb@BDHH|Bh@H@l@CT@dC`@~C^ZAJKF[LkBFUHc@Dy@?u@NmABeBN_D\aE@q@`@sC?yAOUQCg@Oc@CgB[q@A]K_BOU?SGm@IK@KHCJEh@Uz@EXYx@It@?t@D^@h@F^Db@?t@ATUxBQpC?PBPS`@SvAMVMPWp@Kr@@d@@DFH\Lb@HfAHx@@\D`@Jx@Fx@JvAXl@HXAHKJu@JiBNsAHyAAmA`@_FB}@NaAPcDPoABm@@MN?IC?QKSQS]O[G[K[CIEcASq@CUCWGY?q@OoA_@g@HGHCj@MjAKTOTM\Ex@APHdACt@B\@v@Gx@C|@?l@MbCKj@Od@G`@IZa@x@YrA?t@BDVLv@NxC`@bAFrAZlC\PAFKBMBw@Fk@N_AToD@kB\cGVkB?q@TyADaARqA?GKSSIe@IqAMeASO@}ASs@GUIk@Ow@@MBQd@Id@g@`AETAbBE\LfBJl@?h@Ir@MdDM|@WfAK~@Qh@Wp@Mt@KVAP?PBPHLVLZBrAR`AFd@HbALd@Lr@B`CXNCDIFeANcAJaBJy@DuBJsA?{@^mEHuAPgAVwA@iACi@AGMOa@Mk@AUCeASo@@gBUg@CcB]_@AGFIv@[vAYx@Eb@Ch@Jn@@r@HxAMtCOnBKf@CZKp@o@|BQdACZA`@@VHJXFrBPp@TjCVvAT~AJNCHO@MFwAN{@HeANqDAyAAWBa@n@kEJWJi@NWL]Hg@BmCGOGGiAm@a@Wk@YYIk@EeBe@cAO]SIKQGSAOD[LKLITKl@E@KXc@bDC^@pAJbAIjBCpDA`@G`@Uv@
16233280,261,[hirun]우장산 축구장트랙,1132,164892,0.36,0.0,37.550584,126.845556,37.550612,126.845549,}{}cF}_udWRGHI\i@J_@@OFUCQ?WNu@^e@n@eBDU?i@G_@KYSY_@WSEa@@a@DSJc@z@Kf@?LN`@HJBNAjAUzA@FKdA?VJd@PNZB
10491921,262,응봉공원 loop,1120,81513,1.12,-0.0,37.554913,127.020845,37.554888,127.020887,aq{cF_g|dW^_@\i@Ry@Bo@Ck@Kk@Sk@[]a@]]e@][a@Ww@O[@i@Hc@Tc@\[\u@pAUf@Qp@Ar@Fn@Pj@Vd@Zb@b@Xb@Pb@JnARf@@f@Id@O~@k@Xc@Ve@Nk@Hq@Aq@Io@Qk@Ya@[_@iAw@QIu@Mg@[a@@e@Lc@Xe@^[^Wh@_@rAGn@?n@Ln@Td@Tb@Z\d@Xb@Rb@L~@HX@h@Cf@Mb@UZW\g@Pa@TcAFq@Es@Kq@Wk@_@[a@Y{@_Ac@Ye@Sc@Ei@Dc@Lg@d@o@t@m@pAKl@Ep@?p@Nn@Rj@Th@Z^^TbAb@b@Jh@@f@Gz@SRI`@Y^]Vg@Nm@Lm@?u@Gq@Mm@Ue@[_@WOk@Ua@Y[Qe@a@g@Qe@Bg@VcA|@]d@i@rAOp@Ar@Hj@Nh@Rf@V`@^^d@TlAXhALhAMb@Kd@Y\]Vi@Ni@Ho@@s@OeASk@[e@c@Ye@UeAo@cAa@i@?e@J]Nc@^Y^g@lA]bAEj@Al@XdAn@lA`@\f@Td@Pf@Hf@@h@Ef@Kf@Uj@[\YTc@Pk@Jq@Dq@Aq@Im@Wi@[]_@Y_A]}@e@YKkAGe@Nc@Z_@d@w@lBQ|@Ej@Lv@Ph@h@rA\Xb@RjAVh@BhAKb@Ib@S`@_@Va@j@iAFs@?o@Gs@Mm@{@gAiBcAe@Se@Gc@Ai@Bg@Pc@\_@`@w@bBGPIl@AP@n@H\Tj@n@lA`@^b@Rd@Jd@Bd@Bf@Cz@Mh@M^Q`@_@b@uAHq@@s@Es@Mk@We@WY_BcAc@Oe@Ge@Sc@?y@R]X_@^m@nAc@pAIr@Jn@Pj@p@lA\b@^Ph@Jd@Hd@@|@I|@]`@U\Yn@qANm@Dq@As@Gm@Yg@]a@}@o@a@Q{@Ke@QeADkA`@a@`@q@rAQj@E`@?t@DRLn@Rd@j@`ALLZP`@Pt@PbA@b@C`ASt@[Z[Tg@Pk@Hq@@s@Cs@Ok@Wc@_BsAc@Qe@Ke@GeA@e@Fe@R_@ZY`@k@rAK`@Ej@Dv@Ll@Rj@t@dAb@VlAVf@Bd@Ed@GnA[f@Q\a@Va@Ni@Fq@Aq@Gq@Qo@[e@a@[}@a@iA]g@AcADk@Cc@N[\q@nAK\Kn@@l@Hl@Pn@h@lA\\jAf@f@Hf@Df@Ad@If@Mb@U`@[Xc@Rg@No@Du@Au@Km@Wg@_@_@_Aq@c@Wa@Q_AIi@Kc@@k@Hc@X]d@y@pAQd@Gp@Dr@Nj@r@nA\d@z@b@`@Ph@F|@Ad@Gf@Mb@S\S^_@Rg@Pi@Lq@@o@Gs@Sk@[c@a@[gAs@kA_@c@Ae@FoAZa@T[`@Uf@a@tAEl@Bl@Lj@L`@l@nAd@VlAf@f@Df@?f@Gb@I^ObAq@j@sANo@Fo@Eq@Km@Wg@]e@aAs@c@WkA]g@Ie@De@Pc@V]V[d@S`@Y|ACh@T|Af@nAVb@b@Vd@Pf@Jf@BlAOf@Mb@Ob@[~@eBHg@Bq@?_@Ge@a@eAaA_Ak@Wa@Ua@Og@Iw@GgAn@a@Z[`@Qf@c@tAGn@Dr@Ln@Rh@Vb@\\b@TlAZd@DnAGf@Kd@Qb@[Xg@Rk@Nm@Ho@?m@Kk@Si@[i@cA}@e@W_@Ke@Ge@Ei@Be@PcAr@s@nASl@Kr@?r@Hp@Pn@Rd@X^d@Xd@Rf@J\Dj@@f@EhAa@n@g@\c@Tg@Li@Hm@?m@Gk@Oi@Yg@[a@gAm@e@SgA[e@AiAZg@Ta@\Wf@i@tACp@VxALh@Td@Vb@XXvAl@f@Jd@@d@Cd@IRG~@o@VWh@sAJk@Do@Gs@Oo@Yg@][gAg@e@OmAUe@Eg@@g@La@R_@^k@rAQl@Ep@Br@Ln@p@hA^`@jAj@jAPf@@d@Cf@IvAu@Xg@P_@No@Do@@q@Is@Wk@]g@_@_@_As@a@Oe@Og@Ce@?e@NkAj@]^c@hAMh@En@Bp@Jl@h@tA\d@~@l@b@LhAJz@Gf@Mh@S^WT[Rc@Ro@Fq@?o@Em@Oo@Yg@cAy@}As@c@Og@Ii@F_@Te@Jc@XiAlBOp@@t@Dn@Nn@Vf@Zb@b@\d@Tf@N`@F^Bd@ClA]d@S`@[\e@To@No@Fq@Gq@Mo@}AeBa@]e@We@Qg@Ec@LkBz@]^]b@]`AK~AFr@Lj@Tf@\f@^Vd@Td@Nf@FtBAf@Qd@U^YZg@Tk@Nm@Bm@Ak@Mq@Wk@]e@}AyAe@Ug@Oi@BaA\y@\]Zs@bAUl@In@@|@Fl@Pb@p@fA\Zf@Vf@Nb@Hd@Bf@Cf@I`@M`@S^UZg@Xi@Li@Ds@A}@CWMa@[e@oAiA}@_@kA[k@FaBl@[ZSZe@nAOh@Al@Dn@Fl@Rf@Vf@\Z`@RnAZb@Ff@Ah@Gf@QfAk@HKf@}@T{@BeAEk@Ki@Yi@cA{@iAq@s@Og@?c@BaBv@[\i@lAMl@IjADn@Ll@Th@X`@\Z^PLDhANh@?lAQ`@Ob@Wd@g@j@sAJg@@s@A_@Km@M_@KS_@a@y@w@a@Qe@MmAAc@Hc@JeAf@]d@[f@Mn@Ip@?t@Jd@Nj@^~@X`@VNz@Vf@Fp@@b@AlAW^Q`@WNQTi@Pi@Jo@Bo@Es@Qk@s@eAaAq@c@UqAOc@@kBl@UL[`@Sh@Ol@Mp@Cl@@l@Fl@Rl@Xb@b@\`@Pf@Nh@HrACd@Gb@Ob@U`@]n@oANo@Fo@AWGm@Qi@Q]}@y@m@a@g@Qw@Ki@ESB
24785319,263,서울숲마라톤클럽 4-4코스(0.41km),1105,3428,0.42,-3.8,37.542742,127.035064,37.542736,127.035047,ed|cFsr|dWWD_A@UJMNMX?f@Pj@\Vd@BrBCf@E\c@Lk@Ki@[_@g@GeA@
23361191,264,삼청공원-숙정문통제소,1092,1424,1.05,11.8,37.589919,126.982397,37.594493,126.983721,y}zcF_d{dWAMBSPyABgACgAFg@Po@^CDEBa@FQFCHo@?a@B]CwA?kB@GCu@Hk@?aBCSEI[_@INQPk@Ai@Ho@`@
11272585,265,Seonjeongneung Park counterclockwise,1082,8994,2.04,0.0,37.509172,127.044347,37.509244,127.044269,kx|cF}fzdWMg@y@w@M_@Ci@?c@E_@K_@{@{@U]{BiCO_@?a@RqAE[KSK[OWc@GKE
12668375,266,일산역->풍산역,1079,12478,1.7,0.6,37.681507,126.769682,37.673577,126.785045,ej|cFis|dWAQBa@BGn@i@d@UZ]b@B`@Ch@H^NNDn@C\EV@b@IjAINQ\u@^sBXQ`@@l@FXAPDHHBJFr@DJ\f@ZTH@L?JEj@_@|@_@^YTKJFl@rAPFV?d@Wh@_@d@a@XG`@DTHpAr@z@VJ?RI
40115251,267,관악산둘레길 망해암 본격구간,1076,2123,0.37,26.1,37.412599,126.923008,37.411711,126.925974,sl{cFemvdWCDKxAYd@ET?dDIt@MtCCZC~@IfBIr@SnA[n@YxAG~AJ\D?dBJx@JjC`@xAPv@Fr@G@CEK?{@RaGTeDPoAJuBR_CAu@DmBLg@Di@Ji@ISiAUi@A{@Ii@KwAMKCe@?m@Ig@SYPGtAOd@MxABhAEpAUlFOvBYjCa@r@GVIl@KhBL\fD^NDlALl@JbAHfAP`@@LEBIBm@CUHuABuAHo@^mEPqCXiDBgBDcAHk@FsAUWgBOo@Ki@Cu@Og@AMEs@OY@g@Es@FCDHfAMz@Cp@AlBC^@n@Cl@Kz@Ar@YnEIdASx@Uf@U|@K~ABh@VPzAFh@LfEd@|B\VEBCJyBBuAJuAD{An@wHBeAFo@Aq@Lw@Bk@Fe@@s@Fc@Ca@AE]KiBMi@KsCY_DSE?QVGtA?~@Cl@F|CAjAOzBCz@GbAO~AIh@i@zBIn@EzAH\b@HpAHxATh@Bd@L`C\j@B^MHgDHo@Dq@BID{@Aw@ZiCf@oH@iAPuAAm@H]@w@MGi@Kg@EYAUBs@OkBWqAWi@ESD[LMJEn@Uh@Cj@?vFc@zHWpBMd@Uf@Gj@EvB@l@DJRHjAF~ATd@Jb@@x@NnANpADBCDQAuAFmBNqACw@^eEReB@u@N_CEo@JwAJy@O{@?OJm@AEEEu@?kAEgAIuCi@i@Cq@@KtAMd@El@?xBIbCk@jI]jBSh@I^IjD@DNHnC^d@JpCT|AVd@DJCJS?u@BsACc@\kEHaBf@cEDmANiACcABq@Nw@A[Ge@Hg@ASUEg@@g@?eAQiAKa@KwAKa@Ie@?YFIPKtAIdB?~CGp@I`BIl@UzDa@lBSh@OlBCr@Jn@d@NxAHj@PxAPj@Ld@Dn@@`AJb@ABCDa@DyCPoFPcBd@sGCq@Bs@Ng@Ly@Ak@Je@?a@sDe@eB[e@AmAOi@?[BIRAf@OtAAr@E~@E~B]zDC|@QpBKt@_@`BWlBAvAVJd@JjBNx@Nf@AbB^~ARh@CHSF_DNuDXqCFsALmABwDRaAFo@@q@LcBIOg@Ek@BeCa@UKk@EW?cBYa@A[LABGnAMl@EtACzBU|EYlDUzAO`@Op@Ip@A~@EV@d@NZjALt@Bj@Hr@Dd@Fn@Pj@H`AHz@@LYJeFXkDTmBJkBDiAHq@Aw@PwB@e@G}@Lu@Ie@[E_@@}GaAg@?[IWAYXKfBKl@@bAArASxDKn@IpBQdB[fBOl@Gt@Cn@Kp@Bl@hAT`Ff@d@JfANrADFCPmAAc@P}BPgEd@kHBw@HsALiAAeBFs@QYa@Ie@Ac@Ki@GQ@oAQe@?q@Q_AMa@DSb@SzBI`DQpD_@bEKtAIj@]lA[hDHf@b@Nd@Hn@DdALrAJn@PpCV\KD_@XiH|@iKFaCP_BHkCG[[IwD]mAWkBQu@?I@UPEb@A~ACZ@nAE~@YfDMhCY~C_@jBE^Cz@S|A@^FD`AHd@Fx@BdC^z@Hj@L|@J^GJg@J{DZoDFcBHcARcB^cGHiCCq@UKwAEg@Kw@IeAUm@Cw@O{@Kc@ACBOb@@rACFCxBUxEQ`BCv@Ix@OrCQhAMf@Cr@Md@Er@Bf@tGj@rBb@x@FVAJKRyAB{@R}CPwBFeAPyBRwD\}E@o@AMMW_@Gg@AwAYi@Ck@Oo@As@IuB]
18644665,268,경의선 트랙 백마역-곡산역 (1.3km),1075,14385,1.36,0.1,37.657083,126.794631,37.646116,126.801057,__~cFiubeW?j@FZHxAd@hCJ~@Bj@JRJHF@F?BC\Gh@U`@Gd@YRE
38990537,269,Cross-Wind,1072,12001,0.93,-0.9,37.462409,127.108252,37.463358,127.117368,i{}cFeu}dWp@aA\a@j@o@`@Y\K~@KZCd@?NM^Qb@GPGbAk@ZKj@e@PEn@Qb@ER?`@HvAAx@JhAA\Gt@WTEXIXEXKp@QFGDYGIQ?]Fi@TG@MC}@RyCNc@Gc@AwCHw@?_@BwBz@cBx@m@`@OBQ?OFc@Do@Jq@NaA\Yf@ERGNYNq@LOFKPQh@Ih@?TDPRNh@MNMv@_A
18670656,270, 먹골교 Last 1km,1071,12968,1.06,0.3,37.619136,127.081993,37.61767,127.0929,yj_dF}s`eW@m@Jw@Sq@EUH_@Dg@Ai@KkADk@d@_B`@}@f@y@l@e@Le@NaA|@Nh@l@n@JJ_@PY\_AFcAPg@f@Ut@Fh@Lp@d@f@d@z@\^^z@p@
6377278,271,Segment,1068,2442,0.38,12.0,37.475846,127.005987,37.475926,127.009761,qv}cFyibeW\Cn@Fh@CFORK\o@ZWVMVa@HI@Y^_@JSD_@Eo@@G`A_BCUHSBy@M_ABkAAGGIKGK?
12668369,272,일산역앞 공원1,1056,16267,0.8,0.9,37.68646,126.761018,37.682304,126.767901,ek{cFggbeWU`@g@XUDMA_@QY?UIII?QE@IESFIHGZIHOKIWOJEEMQCQDMDAr@Dr@?h@En@BNC`@@ZDZC
11423749,273,[여의도]8K_2주차장기준한바퀴@ddamdo,1049,2261,8.22,-0.0,37.528637,126.931716,37.52877,126.931568,cx{cFoz~dWTATETODKD_@L]Fm@POTEJGFMTu@JIPIFIBQKe@Ac@@OPq@j@m@JENAx@JLMNAHCf@g@b@m@jAe@TOLCZAt@QxAq@`AI
6377278,274,Segment,1041,1522,1.15,13.4,37.693003,127.023005,37.694032,127.017845,oq}cFw~beWsAv@i@VeAZMCEBo@j@UJa@\W@SFKJ[P[VELCN
40115241,275,관악산둘레길 망해암구간 full,1037,2049,1.24,10.7,37.418874,126.925443,37.411746,126.925883,sj{cFuibeWJe@?GGIU?YFMEM@o@IMBe@OIDAFWZIh@HJD?t@ETDf@EjA?
19467230,276,진옥자전거캠프- 서울둘레길3구간-일자산간해맞광장계단(JOBC),1032,2910,0.23,12.9,37.52674,127.150795,37.528362,127.15236,wq~cFcjleWNCJIFKBQAQIWKIKE_CEiAHQHILENAXJVJJRDnAAV@tAE
