id,name,distance,avg_grade,start_lat,start_lng,end_lat,end_lng,effort_count,athlete_count,star_count,polyline
8553131,만의골 애보 언덕,801.0,4.2,37.44581,126.764304,37.451971,126.76883,48325.0,2780.0,20.0,ispcF{sudWcD_DsB_BWK{@WmDaAq@Uy@a@cC}A}@q@y@g@cAcA}@s@qAiAaAw@w@y@
13529134,소래산_800계단,474.7,33.3,37.450634,126.774668,37.451803,126.77867,1204.0,343.0,8.0,mqqcFstwdWC]Ke@Uc@CWWu@e@w@E[@_AMU][Ym@@]CcAMe@VWUWe@GEKBMCe@@wB
9405407,소래산 업힐(김재로묘~헬기장),636.0,14.3,37.447825,126.766231,37.449311,126.771596,260.0,126.0,1.0,{_qcF}_vdWSYOe@Bm@Kk@DcATg@Eo@@uAAKLSB]Py@HKJCNo@DACeAMYDi@@y@c@QMKeAa@g@G]Yi@o@}@{@o@aACU
23169249,상아산-김재로묘 입구 Holic,1384.6,-7.5,37.454259,126.765535,37.447715,126.765844,62.0,31.0,0.0,ahrcFq{udWCFB@h@HN?NDHXHJt@ZLLHPBhAF\R`@RNXZ^XX^^\d@H^VhATHFPCTLTBlAvArAX\@XRTHJT\^XRHD`@FBAJMNEp@cB?IHMDSHMTq@H[JIDQPYj@i@^sACUYe@EMM}@Ce@DuAb@Uf@CRLd@HRAbANh@Ib@N`Ap@TA@UMQ_@]_@Si@SgAUAC
37760515,은계호수공원 400m 전력질주,404.8,1.2,37.44409,126.80774,37.447141,126.806493,49850.0,833.0,3.0,qhpcFkc~dW_Bm@m@Qi@Wa@OSCQBQTqAnAs@p@SVSb@_C`BQTOT
38778483,소래산  uphill (내원사 - 정상),985.0,24.1,37.445527,126.781688,37.452065,126.778767,154.0,50.0,0.0,oqpcFo`ydWEX@f@K\EDSAYH_@CUMYIa@?[EW?UDg@t@_@NCH@FEJWFMHQREJ_@RALKHSVM@GFWJQ^KZALKBKFAD?HQ^?FU?IB?LIRMXQJEXOJOEG?QMa@CKKQ?QCI@MC_@TQAIBIJKBSJQNEJi@d@MDOAMDQ?KBIAQMW?WAA@MEM@SCIGACWKOOQ?OOWC
37760497,은계호수공원 중앙데크출발 5KM,5031.3,-0.0,37.444939,126.805356,37.445524,126.808142,3432.0,338.0,1.0,ympcFmt}dWPa@FGb@ALIN[hAwBVk@^gANYJc@R_@DQ@Q?IECSLM?KIQCqAa@eAe@sBu@I?]VcA|@a@d@y@p@[h@SLk@l@_Ar@OPO\M~@AdAH~@Tt@p@l@j@PvA?LHZ\H?^G^Or@e@l@q@RYN[LOLEd@AJEHKpAeCt@yBr@kBBSAIIAYLMAeAa@UKkAc@a@Ky@_@e@KWFKPaCzBW\O^GH{BzAQTW`@GZKfAAd@N|@`@z@VV\RVHl@Bd@?LB`@`@HDb@K`A_@x@w@v@mAJK^INABCHQX]R]Ri@d@cAp@oBXs@DY?SCA[JUEcBk@mAe@a@Ko@Y[GUJqAhAq@r@YP_@h@c@\_@^s@j@e@f@KXQ~@Cj@F~@XbARV`@\NFz@Ld@ER?JF^b@H@TEbAc@VSb@c@bAyAJEb@ENOf@y@J[T_@t@gB\kAZu@BO?SACGAIBMJQ?kBs@kA]mBy@IB{@t@eAbAe@^e@t@g@^o@n@]R_@\MZSlAAt@Db@XfALTRXl@VVFZ@d@AP@JD`@^HBTEpAg@XWr@aAZi@NGd@GR[r@kARi@T_@f@{ANq@`@s@BSAYI?WL]GmCy@oCeAE?IDYX
37760520,은계호수공원 중앙데크 출발 한바퀴,1147.6,0.2,37.445143,126.805077,37.445078,126.805246,33615.0,686.0,2.0,copcFur}dWj@{@Pa@HE^?LIN[hAwBVk@^gANYJc@R_@DQ@Q?IECSLM?KIQCqAa@mBy@_A]QEa@XcA|@a@d@y@p@[h@SLk@l@_Ar@OPO\Kj@E~@@XDp@Pp@JTb@b@PJ\J|A?LHTXHBd@Gd@Sl@a@t@{@
37760503,은계호수공원 중앙데크 출발 10KM,10037.0,-0.1,37.445143,126.805077,37.446153,126.804823,407.0,102.0,0.0,copcFur}dWj@{@Pa@HE^?LIN[hAwBv@sBLULg@Vk@BQASG@OJM?KIQCqAa@mBy@_A]QEa@XcA|@a@d@y@p@[h@SLk@l@_Ar@OPMVKh@GlABp@DXH^L\f@f@PJb@JvA?LHZ\N?XG^Or@e@l@q@RYN[LOLEd@AJEHKpAeCt@yBr@kBBSAIIAYLMAeAa@UKkAc@a@Ky@_@a@KO@KDKPeC`CSVSb@_C`BQTYf@Ij@I~@@`@Fd@Zt@JRVVb@TTFvABJFZ\HDDA~Ai@x@w@v@mAJK^INABCHQX]R]Ri@d@cAp@oBXs@DY?SCAUJK?_Bg@aBo@a@Ku@][CeAz@mAlAYP_@h@c@\_@^s@j@e@f@IROt@Gz@F~@XbAVZf@^`ANd@ER?JF^b@H@HAhAc@\Wf@i@~@sAJEb@ENOf@y@J[T_@t@gB\kAZu@BWAOKASNQ?kBs@kA]gBw@IAaAx@eAbAe@^e@t@g@^o@n@]Ra@b@KTSlAAt@Db@DVNh@PZRXl@VVFZ@d@AP@JDd@b@PAtAi@NKNMr@aAZi@NGd@GfAgBRi@T_@f@{ANq@`@s@BSAYI?WL]GmCy@kCcAIAQLaBhBk@f@o@~@s@r@aAp@YZIPKVKp@El@Dh@Rv@JTd@n@RLd@Ld@H\AP@NHTVNJZSz@_@TQl@i@dA}AHEZ?NKnBmDh@mB^}@BOCWAAI@IHC?UKkA[]OSE_@Si@SyA_@IAWLa@f@k@d@aAbA_@t@a@Tg@d@]RYVUXQn@QlA@b@Lt@HVN\VXTPVJ`@HlABLH`@\l@Mz@]b@c@nAgBh@MFEx@mARe@PW`AsCVk@Ne@B_@CEc@L[E_AWmAg@]KQKo@Qe@SIAC@YX[TUZmAdAY\Wd@iBvAa@b@U^Mn@Gj@@~@D\Rr@Zb@XRZLLB|@BZDPHXZJDjAm@NC^Y^_@`@s@T]NEb@@LIz@_BN_@P_@|@gC\w@HW@UCM_@NOA}Bs@aDkAOCu@j@k@l@OTs@l@KJIVMNq@j@m@l@g@^W\IVQtA@h@Dn@Nd@^h@`@Vd@NTDl@AN@p@f@DBF?tAm@\Yb@e@d@u@PSLGT?PETYd@w@hAgCTm@FU`@kADWCUGAWF[Cu@[[E]O{Ag@qAg@YNUZeCdCQVi@b@mApA_@\OVELOnA?r@Jp@J^HLNRTP\Pj@JhAH
37597939,은계호수 5k,5026.9,-0.0,37.445797,126.804553,37.443904,126.807756,3713.0,339.0,1.0,espcFmo}dWJ?RKRQRYjA_Az@cALKd@QLOp@iAb@aA`@eAXcAh@qA@QAIMMo@Mk@Si@Oo@KyBs@]Ci@\sAlAsBzBeB|AWZQZM^ETGv@?TJr@J`@Pf@d@d@p@XZFz@@NFb@XPBXCjAg@TSrAoBNIf@GTSv@wAXs@\eAjA{CBWAKKE]Au@QoFeBQ?g@X_@XiBlBu@|@iB`Bc@f@Q^CRKfBHx@HTR\VZPNr@Zj@Jr@Dl@XP@TE\Kv@c@`BsBLKd@MLM`@s@z@oBt@yBj@sADUCKKE]B]EoEeBy@WK?YPu@j@oAhA[Zk@v@y@x@s@f@g@n@CJM~@GhABZFb@J\HLf@l@XPf@L^Dl@@TJf@^PBPCLE|@k@z@cAZi@PUp@UJM|@yAd@cA~@wC\}@BSGOIAY@_@EqBw@_DaAO?c@NUPo@x@eBdBuAfBm@b@OTQ^GZKhALvARh@FJLRZXd@Tp@Jt@Bh@\NFZCj@[x@q@rAkBNI^GHGX[\m@j@uAx@aCf@kAFS?SEGWAw@M
29574647,노온정수장트랙,447.9,-0.1,37.447061,126.856795,37.447021,126.856813,2926.0,87.0,2.0,c{pcF}ugeWR[@IBw@Qi@_@[OCO?M@i@XoBdAQPMRGNCb@BZN^VVTFb@CNE~BmA\[
25835569,구름산 → 가학산,2158.9,-0.5,37.440427,126.86627,37.428005,126.867395,316.0,195.0,2.0,sqocFeqieWPJHHNFR_@VMNO@NLHH\XFLEBXAJJFAM@@JH?HNFCAVE\NNNDAXBP@DEH?HIHACLNBb@i@LCNHNDBIDAV?JFJ@PCN@\TX\JBBJH@^l@CRDBLDFDR@LOLCN@TNLPR?PEFM@MBEPVVCR^BNTR^CFBZAXSNJ@n@FL?FDDTDPKXa@`@UBMFRHBDPVTD?HKXm@XU\VBNFF?FXJVEZUHO@?P\RNFBFAD@?CKf@E`@OHCPILEN@ZCb@CLGLQPIT@NJFFL@LHPINAZC@@DPD@WDEFUDEDQPYF[DEFM?IDGJg@LYZIH@LGLALKDYNKBK?CNo@P]?MBa@HETe@@SDUCOBMPOBG@IAKKOFQJKFQRODIRGDGRQPCPIPKJAF@TML@v@QXBPSLAb@YJS\]KI@IE]A@CI?QC@NMb@MDg@DED?TLJNZ@`@JVSDIVUTAJE@Fb@LXK`@?@DH@ZT@HLPAN
25835560,가학산 → 구름산,2120.5,0.5,37.42801,126.867419,37.440442,126.866254,248.0,92.0,1.0,admcFixieWKYSOMGKAa@@OFKIKAEEUBQAY@KJSHQNGBM?IEi@Ia@WKDCFAPFn@Eb@IXKJCHYb@MRIFY@WHUEKDILGAw@XW@WFIHc@RIHYJMJI^CPFf@?LAHIJUHGVBJE\Wp@AJBHSz@OVAJQNIXEBC@GDM@KFGAQJQb@?HGTQRIZ_@h@Oh@EKIEBSESEQWc@P]RgAFi@Xi@HqACCMDOCKOGUG@CD?DGNg@RABWIc@}@IBULETKTQXKDIESUSk@I?KD?F]p@QLM@KEE?Oi@Ag@KOM@KPKBO?UJKCKSYUEAEM_@GGEMUKV[Nk@WQGKTI@G?KIM?GO@IO]EIKAGGDI_@OKQWMUBGCSBOCMIc@C]MG@ILOd@QIAICCAJq@Bi@Uc@I]FGG?KIEIB?MBICMBME@?CIBIJGAKS?IGI?OGDAJK?GFMBKLK?IDGGQ?IM
13207059,광명동굴 가는길 동측,864.1,12.3,37.430166,126.875072,37.425465,126.870901,346.0,72.0,0.0,oqmcFehkeWPr@`@x@@X?VEr@OR]TMLGT?h@FRZ^n@f@VVh@pALp@`@x@LJpAVf@V~@Nd@Nj@DfAPH?TMNQZo@PGVFz@j@bAJf@RNNDXCp@DVNTR@TIf@m@
25835577,가학산 → 서독산,1143.3,-0.5,37.427902,126.867383,37.42262,126.872033,137.0,102.0,1.0,kcmcFcxieWh@[DF^@NLL?JKVERAHNLBNGNONB`AAVOVCNMVJFKHE^o@@MCg@Jq@BEh@Q`AKHKRi@FeBE[EC?SQm@?YDEN_ATc@HGDUAOBQCGMCOIDOHKPG@BP?JFLN`@JTYDOJBLTTh@N?HJNB^CNOXOD@ZK@CTGLKH??VHVZ?t@Md@YTn@NPPB?SIOE_@A@IW@GCGCABMGG?UMC@OQKDKQBIAQI?c@IQ
25835548,서독산 → 가학산,1102.1,0.5,37.422561,126.872055,37.427886,126.867364,85.0,44.0,0.0,_blcFiujeW?JNXHBBFF?FDNT@TFFCVAZFHDZF@FP@PBBEF_@w@ICQDUPYBKH[JKKEMKEMBIFKBU?YDCDYFMNUBOAGOCCIASc@KIG@IHc@Tu@OGEMMWACPZ^AJKP?HMFQv@Q`@?VET?DDHDNBb@Fb@Gj@FXGT?^IVGHKDu@F[HCHE`@EFAf@AJKXCNMVOJCFQDMKO?g@VKAQBMCc@HOHYIKKICMBq@\SAIBYCCIG?OGON
6280517,Segment,742.1,12.9,37.434155,126.903359,37.435798,126.909759,345.0,273.0,1.0,mjncF}xpeWIs@B}ABs@RqCKq@Em@Do@?s@Hq@^_BCSCmASQMUSWg@Cc@KWM[CKDg@@_@KOBY[M_@JWFi@Di@Og@?[OiAIU?U]k@
17138730,삼성산 시민 휴식 공원 #1,281.6,-1.2,37.454817,126.910413,37.45478,126.910404,202.0,14.0,0.0,qkrcFaereWA?Je@NQJUP{@A]EGGCGAGb@q@dAUj@STMFAHBJXZF?PCJIPOBO
34729007,삼막 업힐 ,382.9,22.0,37.425042,126.912295,37.427277,126.910021,438.0,102.0,1.0,oqlcFypreWk@\E@EE@Fn@p@_APe@TED@ZI?GDW@EA?EEAABCGOMA?OFCXGAGZIJQCEDANGN?JQ\EDAVCLS\Gb@E@ATQPGNIDE?i@OMHK?
34410820,대림아파트 공원 >> 관악산 둘레길,537.2,19.6,37.431023,126.905993,37.431846,126.910947,35.0,17.0,0.0,{vmcFmiqeW?EOK?IDADOAOEGAG@MGWAo@LUH[JOF]AIBIAOHOBQNUL]@UCK?QIk@IOKc@?CFEIWAAHMIHMC_@YA@EACGAGFMAI?KFQEG@GMKEYKEGOKOE[EEOe@MOAIMMGAEKGW@IKY@MAA?Y
11890967,삼막사 주차장-철탑 (런 1회전),6676.4,0.0,37.437028,126.92402,37.437153,126.92421,760.0,191.0,11.0,k|ncFczteWm@Sc@UaBoCOw@G_AMo@o@}Ai@_Bk@cAK]g@mAuAkCm@}AMk@Ug@EUUe@Ci@Am@@G\?`@XXZp@h@Vf@TVPPPDRA\WZ@Xr@T\LJPHx@Jd@APQXk@Ng@V_@n@Un@c@DQEm@CaDIk@EsAM_BSe@gAeBOa@@m@R}@Hq@J[Bo@[XG^q@pB?PLdA?l@O?ACSs@Gm@Fo@TcADkAIg@Gk@^aD`@_BNMb@LZR^PLEVWVc@CaBBKR_@d@A`AJr@^fB~B?W_@{@@q@UuAG}AUi@WWMIc@Me@A}@aAe@SmANq@?g@Ec@Oq@a@J_@l@ANKBeBPk@BGLGd@EJSV{A@eBRc@RHJbANn@XMJm@Zs@^QX\En@GTEl@`@r@SMQU@g@Ha@Jk@AM?EOYMAQLUf@WzAWUa@uAOMGb@Dh@QjBSf@e@HIFSh@GxAYZg@AS^ZZj@Vb@Jd@B^Ap@KV@h@R^V`@Tf@F\Vb@NXd@D~ARhAEn@@Z\z@Hn@a@M_@WSg@[a@c@S[_@a@Ge@EULOh@DNBn@ETOPa@\e@Dm@a@_@?]d@Oh@SbBS`ABj@Jh@Cp@MfAUf@CV@H`@`BXFS{A?Ql@mCJ[X?Ql@En@Mr@CZJ^v@jAj@|@Lf@DpCNnBCj@?rAHj@Yb@yA|@i@rAMT]VaBAWGEEMSOg@Ya@_A`@c@I]_@g@aAg@[_AkAa@BEj@FNZ^FLbAtAd@dARn@Z`@BLXd@Xr@Ph@d@~@`@rA^x@p@rB@r@Ft@Rh@t@z@Rb@L`@Td@f@T
18377335,건설환경종합연구소-연주암,1606.4,23.1,37.447224,126.949625,37.442077,126.964391,1007.0,635.0,5.0,c|pcFczyeWJ?b@NDCBE@WEi@Ba@Ja@AORe@`AqATc@H_@?GGO?IIk@?}@AKTs@D_@AM@UEm@?CLEx@sAFwACm@PmAXiADm@Hk@`@kAJaALg@Bc@Gg@HoAd@eBE_@@k@HIJk@Jc@JQ?UHC\k@VOLChAu@HY`@[f@k@\EVqA?QPyAHUPa@J[VSZDHDBKB[?QGM@OJo@?_AFk@@m@LK?OP[Ha@Ri@Bg@RS?eALGFQBw@La@?K
21920281,진옥자전거캠프-관악산(연주암.연주대깔딱계단)(JOBC),246.5,26.1,37.442973,126.964769,37.444952,126.964078,4967.0,2698.0,3.0,qapcFwx|eWw@p@[R[?UAULc@D_@GK@GNWd@_ACQH[@QE
21780875,진옥자전거캠프-관악산(낙성대구간)(JOBC),1197.0,15.1,37.451958,126.967995,37.445418,126.96444,3316.0,1687.0,2.0,uyqcF}l}eWbAY|@KhAs@R[n@cAL@HALGLKR?t@_Ab@c@lAw@^MLAv@Fr@EHLVNb@MRFb@Gr@@LAL@P\HBf@FHDX@NJDFE\HRNJFRDVHdB`@`BFf@RHFHFVDHJBHHFXLPHf@?ZLRIA@B[rA@PEPIFS@EPDJJDHXJJFPDXHRZ\Nf@Df@DPp@\JJFJ
12276391,SNU engineer hard uphill 600m,647.0,10.2,37.453363,126.953617,37.447874,126.95209,1374.0,444.0,6.0,obrcFaszeWVHp@ZXPvAf@fAh@VFbBr@dBh@~@b@f@ZRBvBCd@@H@PCXDj@@HCd@@RBL@v@ETER?RB^C
20091476,진옥자전거캠프-관악산(연주대깔닥계단)(JOBC),1133.4,22.2,37.444605,126.95877,37.445045,126.964149,2440.0,1427.0,2.0,wkpcFis{eWLHLADSLW?KDGPCTIPYGU@EDABBND@ID?JF@IDGJCLMTBL?BBF@?IGO?UJ_@AW@SFSHIECJQ?GFEAIJMD_@HGB@FCBQPIPGLL@WF]GADQKB?MTw@GAF[CI@EAE@e@D]IKEY@E`@]DKNKLe@HKBOAO?FAG?GHWLOBMGm@\s@GQ@KEWAYIQAKW_@MK[GYJ[DUCs@Dc@`@a@B]J[AOB[XG?KKEAIJEJ?Z@DCHKEKFQ?CNQEMQM_@MAEBQ?UE
5125219,Segment,309.8,16.8,37.444852,126.968142,37.447067,126.969396,512.0,312.0,0.0,impcF{m}eWQBKN?FK@CMK?[]K?WEKBKHSBg@_@c@GSYOIK?GIWMU[YUMIMSCMECG[IKOI
11960084,삼막사 주차장-철탑 (런-내리막),3374.2,-10.1,37.436081,126.939809,37.436748,126.923966,936.0,242.0,2.0,ovncFw|weWHNRXABWa@Ee@TkA?_@IWc@JABITO~@[XGe@YgAW?El@AjAGp@Mj@{@XEJOj@ApAQ`@EBo@CMb@f@\XJv@Il@?~@KL?dAp@Z\t@HTP^ZNf@h@zDCp@ZrAAb@wAaBKGi@s@OIiAMS\Cj@?n@c@r@KJQHM@OGW]a@GY^MZQp@QzAMh@Cn@Hl@UrBWbAAn@Fj@Pj@P[UyAF]Ri@Hg@La@R_@AfAIfA?XLl@L`@dApBLb@HzA@x@NzA?t@NrBKb@a@T[ZYJOLUr@e@t@a@Pi@ES?SAWOYg@Qk@WQa@X_@L_@Oa@i@I[We@uAaBc@KUd@Dn@Jf@r@vAXd@~AbDl@bAN^XbAh@nA^jAj@hAPf@Hl@@n@Ll@Tj@h@z@Tn@V\NLdAZb@X
25835690,무너미고개 → 학바위능선 → 소머리바위,1736.0,18.6,37.439055,126.947938,37.440937,126.963391,321.0,246.0,0.0,aiocFqoyeWIq@Fc@Tu@NQBWHY?KAK@EBW?mAWe@WSCOCAEKIs@?GF]AYFABCFW?]LKEUBMa@UGKHADCO]GSGEEYSWOGCGGCI?IO?GDC?IECI]FYD@LC?GOAIOCGBMFEEOGEJCN[MUMEAGDC@U@CGE?E@CNBGU?SBAFBBGPMFKASDIBU?MDGBM?UDAAKBIFGB_@CSDQAQL[AWHe@@eAIk@?OKa@@GQ_@Kc@HKMe@FWAUS]?M@WKcABQEMA]A@BMGWEEAa@[e@O@KJKAGGQAc@]MQIG@ESWM{@IMCc@Ko@@a@CSSg@IGCIAQDAF@PIBEJk@AW@KAG@OEc@CKDYCa@HeACS?m@EM?KCGA@CCUu@GGEOCiAGU
6439630,Segment,665.1,12.1,37.447599,126.925422,37.446371,126.930513,259.0,123.0,1.0,m~pcF{bueWqAs@c@e@g@[s@_BOu@?y@Xk@@y@SkDJw@^i@rAq@l@Gf@]pAo@nAy@l@cBf@Y
8356449,관문운동장 400m,415.1,0.0,37.441083,126.996586,37.441057,126.996573,497526.0,2697.0,17.0,wuocFs_cfWd@GZe@Ds@Im@c@Yg@C{BDg@F[ZMp@Ll@Z\b@HhAChA@
7176502,서울대공원 Loop,2098.8,-1.5,37.431253,127.009811,37.431391,127.009886,22463.0,1467.0,23.0,ixmcFirefWJGRGLKFQV]L[Cg@Ha@P_BH[NwAn@_D^cCB]`@qBD_@|@mCN}@Ao@Kk@Um@QYG_@Ws@I_@_@u@OQo@a@MAsAF_@LcABy@Nk@@WBu@Pq@FcBF]Fo@Ra@PwBnAw@n@KJORO^o@jAu@fBKLUj@W\i@lB?JGRWj@BZPj@X\x@x@LPj@f@\RlCbCvBtAr@ZH@x@`@~@^j@Xf@JVLj@PtB\BH
21920176,진옥자전거캠프-관악산(과천중학교-등산로입구)(JOBC),427.5,9.0,37.43358,126.989513,37.433909,126.985191,372.0,221.0,0.0,{fncFmsafWHh@Ch@BlA@Fj@h@JPBLGz@Kn@Ah@Dx@Hh@@pASvAAXQz@OVa@^Yf@OP
7176429,서울대공원 Loop,2389.1,-0.2,37.431535,126.998794,37.433316,127.016606,1430.0,150.0,4.0,azmcFmmcfWZwBCC_@GO@QCGBQVa@D_@GYA]EW@QE[Da@EYBOGGIG_@GoA@oCFyAC_BB_A_@iCLg@Di@FsACm@Bi@Ia@GOg@_@s@q@OYAQHWd@q@Zw@t@wBJo@v@yBp@mAZgAb@aANk@PYH_@f@cBN[NQX{@HMZSREP?RSRGLKFQV]HQBSCU@OFYP_BH[NwAn@_D^cCB]`@qBD_@|@mCN}@?WMcAUm@QYG_@Ws@I_@g@aASOc@WUCc@Fg@@_@LcABy@NS?o@D{@Rk@DcBFc@H
26678746,진옥자전거캠프-청계산(대공원등산로입구-과천매봉-대공원)(JOBC),4386.7,-0.1,37.430087,127.005813,37.430209,127.005792,154.0,69.0,1.0,_qmcFiydfWZKRQh@ITQJa@AUJ_ABKb@m@t@g@^QHAd@FDCPS@EFM?MHYNWL_@f@cAVaBF]FI^KJ?`@Gh@ANAFER[FUb@y@HaANk@De@Ga@?QHUR[RMn@AFEDa@FSRWFYPQl@_@^K^[XORU\Md@Cd@Mx@g@Vc@h@_@TGVUDCh@?J@VLZ\RN~A^V@vA[p@?d@BH?ZQPOLQHAr@Fb@GN@\PJ?FHLHBAAA^I~@RVEZ?HCXYHEf@CHGf@c@FI@IROREb@AVKTAFCN@FIHCv@Af@QNRb@JTLVDPJHCJAFCX?b@C`@Dz@?ZF|@BXI\AVOR@JCb@ADBFE?EVC@CF?BMHEZAD?NJBAR?VV@DHBAB?EKOI?GDQ@KSICG@[Li@^SBWAIEK@IA_@Nc@B]H]Bi@U{@?YGW?]Fc@TOGSUMC[QU?SKGIm@PO@UCQ@YPGAe@JQLSCO@YPIJWPOFQJc@Fm@j@G?GC[TOOWECEIASFKFGAIEEKI?MMMGa@Ds@E[HcAf@aACUCu@?k@Tg@LI?a@Sk@ASCWWU][M[?WDWNUJSLOFUTw@l@s@\I?IKKBc@VYXsBjAk@n@[~@GFIFY?WNOVKX@h@WdAOhAq@vBKFQFmBFMDM\GdAMh@Oh@]j@Yj@Qr@QXKFQ@ME_@Do@^s@bAId@GNCPMj@S^GDe@DSNSDQFEACK
21132685,양재천 육교 - 과천대로,806.6,-0.9,37.43882,126.994783,37.445657,126.996772,18734.0,1976.0,0.0,sgocFktbfW{AjAMDoADc@IKGYW}@o@i@[e@U{AcAe@Wu@_@cCq@]Qo@Mi@O{AOaBHkA?y@D[GoDsB
21132695,양재천 관천대로 - 관천교 ,513.1,-0.0,37.445657,126.996772,37.448976,127.000534,29346.0,3203.0,0.0,irpcFy`cfW@A]a@yBwBy@aAMSAa@Q]a@Yo@_@uCgAm@]][kAwB_@{@Iq@B[
21132649,양재천 중앙공원 - 별양교,511.4,-0.3,37.43051,126.994075,37.434098,126.99728,13343.0,1520.0,2.0,usmcF}obfWKGUYs@o@g@q@{@w@QWgAk@sA_A_@a@q@i@eAcAwBiB}@o@UW
15153144,관악산 과천교회 > 산불감시초소(업힐),763.2,22.3,37.435106,126.990981,37.438186,126.985191,84.0,35.0,0.0,kpncFs|afWBR?JS~@KJGVIh@AbAKTGZ_@x@Ml@INEReAt@QTGA_@FMAMB]GQAe@Hc@Lm@@MBaAFaAVUJUXI\?h@ET?f@@HUj@CTHVLHF\EZDROj@@FPPCHFTGN@PLV@l@JTD@
35764944,국사편찬위원회-보광사,571.7,-3.5,37.423535,126.977177,37.423548,126.983651,872.0,312.0,0.0,ahlcFif_fWA{ACa@Fq@?yAFs@CqALg@Jw@Ac@JaBAiAIcA?eAEaBE{@Ig@Ca@Ai@BgBEa@Ai@
16081901,to the false peak,2044.2,21.5,37.442637,127.053345,37.429023,127.044943,2161.0,1394.0,4.0,m_pcFkbnfWPh@F@\GhARPFJ@HGXYFGHAv@NVBX\ZTN`@h@NZn@FFRFFJXLX?ZNJJf@r@Tb@JFZJXf@JEb@BLJTf@P@JBF\?RDLLBNLNGPULIL@r@c@JDVKJ?NFNM@FFBPCx@Jz@Rb@CJCN?FBJED?JBDFPH^I^MH@BIPMBOVWL\HDFITKFIP@FKLG\ERDHFFLNn@H^Bh@Jj@Vf@RRZz@B`ADR\l@RPZ|@t@b@Ff@B@DCJd@TTLTFj@d@RH?HFLCFFB?DJDAD@BJF@BDHCLR`@CXBFDLGL?l@QXA|@Sb@Df@b@VNNBLHz@t@FRRX`Ap@RVR?LFL@d@t@DLJJCj@LtACJA\
22116933,TRB-청계산 깔딱고개 버티컬,1022.0,19.6,37.434362,127.044608,37.42896,127.044531,4774.0,2562.0,5.0,wkncFwklfWFULKJODMPIDOHGFIJaAJMLe@@OHMFa@HS?OHSGM@DAEFDCGL?JDFEJ@HCDFJIL?@BF?BCLCBCF?LG?BJKD@FCJATUPABGACHGBMHIFYFK?IB?BO@AN?BEAI@DJ@LHPDDEPCB@JAF@NGBGlAAJGl@@HD?[Ld@LHBHFFLDDFP@NJHTLBLJNBCF@BRXF@DF@AJF@BHD?BJDBHJH@DB?LJBA?G?RLL@BF@BA?CFCCHBDHDBC?HB?NLAJJF?N@G?BFDAf@BJBC@B@v@BLCl@AN@XP\
6924327,매봉/Maebong Climb,3830.2,13.1,37.451072,127.043167,37.428917,127.044697,1165.0,650.0,2.0,etqcFwblfWLOFA\YJ@F^DFBTHR@PH`@Bb@ZrAZx@Jx@Th@PRHTNx@Fp@APKTJ|@LVVZPn@d@x@Lb@LPXrAJNFP@RCb@@Rd@l@PPZNDHTJBFh@TLBL?PDLAFGJBF?d@Ud@AZLHET?RHR\D?ZKFOPMVGLGFI?EDM`@m@TSRELIXIPKl@MJAHDn@DFHPBFDXGj@DJFL?FBb@j@XNHBd@@F@JCLDNJJ?X`@JR`@^v@XH@FAFBHEJBZPHAFDPPFAFBF?FTJB?H`@\BF@JF@NT?@HNAJBJDBABBHf@l@BFJHLTZTLA^B^CF@TGl@ALIXATUv@UhADHAPIXW?UBC?KHUViAFM\[HWTSFSF}@Ce@DQBYSsADU@a@Rq@Hs@EgAMu@?QL{@FQN{@@WVeARWH?x@M\ONSTQHMRm@DYVi@Xc@r@w@FMJKTY@IGUBa@`@CVKJAFDL?DEVq@@E~@gAJWNKHS^MdAg@d@Ep@WH_@JGLUTMBGFEH[?KDSDOJKNYF[AIFKAUJc@B]BEh@QFEPBLG?@FAL@BE@@HEJIJ?HGNARINMHCLUFCBIFC@SLWDOFEPAj@BXET@XKV?h@EB@RIf@Av@l@r@THH\LJHV\`@XXXHDRZ@FJFJ@LPZNX^D@AP@XFJ?dAAHBZAB?PJ\JLHB
26504777,진옥자전거캠프-청계산(청계산역-진달래능선입구)(JOBC),589.6,8.4,37.445086,127.057296,37.442293,127.052448,1898.0,1108.0,1.0,wnpcFa{nfWBBDIYQbBpAj@Z^NFTFx@HLD^JdAXp@Nr@Zr@d@pBLTn@t@n@jAb@\f@v@Rh@X|AL\
4278178,Segment,535.3,17.0,37.426218,127.04191,37.422971,127.0429,3242.0,1739.0,0.0,yxlcF}zkfWfAKpASXIZ@XEJIBG@GCC?FEBc@VCNFRL?HJF@VAJHJ?JFF?XRDANNJDNEXFd@?HED@b@MJADEHCLKNWHCAEFGJEVY?[@GBCLE@G@EEQF_@FOAQBE
26492636,진옥자전거캠프-청계산(쉼터-옥녀봉갈림길쉼터)(JOBC),965.0,25.3,37.438545,127.050781,37.432082,127.047278,2759.0,1646.0,0.0,{eocFkrmfW@RDDJDVARUJA\OTGDGHGZGZ@LEDDPEp@Zh@DPFh@?nAQNBJLT@h@S`@g@FCFAFE\TJMNEJA^YPCHBd@ZZz@FZJhAZz@RXJVH^Bd@Fh@Xn@VZ\h@JHJ@LPFP?DDDH\^b@d@bATLXBBBF?NNJCHPLLD?DCJAXP
26779129,진옥자전거캠프-청계산(헬기장-매봉-매바위)(JOBC),726.7,5.3,37.430702,127.047264,37.42911,127.045843,4001.0,2257.0,0.0,{tmcFk|lfW\Xt@^NN^l@dAv@h@l@BFJ@HNVJPZLHAZHn@@n@ET@JAXRz@TTJRFBLCd@JLPDDHTPT^p@@F@@GWY_@Sa@KMKUGAOOUCi@SU_@GW@WDQAK@OCQ@SK{@Ae@EI
19436144,진옥자전거캠프- 터미널구간(JOBC),340.9,10.6,37.448591,127.03766,37.451289,127.03663,896.0,569.0,2.0,udqcFk`kfWc@]SC{@VQGOEs@J]d@IBWRQBQJk@PS\GAIJq@LWPE@KPGBM@OPOFGA
26778778,진옥자전거캠프-청계산(혈읍재갈림길-매봉)(JOBC),1707.2,16.9,37.429724,127.059439,37.428159,127.043792,111.0,77.0,0.0,wnmcFmhofW?\MRGTE^M^Ep@Wx@@VGp@XbBIt@DBFZJJ@^FBDL@PN`@@VE?BFAFBZAJDXHLFNPTFN?HE??H@ZLr@Ar@H~@Xh@BJ@HABANHRHJDf@LHNXJt@JPJH@RRJKt@?PDvACTUb@MDQV_@\ULMNIb@u@t@M^MLM\W^Uj@SRWt@]fB?PGPATERARBh@ELEx@@XIJFp@AFKDIb@EDARBHXV`Af@NN^l@dAv@h@l@BFJ@HNVJPZLHAZHn@@n@ET@JAXRz@TTJRFBLCd@JLPDDHTPTP\
23218906,진옥자전거캠프-청계산(옛골등산로입구-쉼터)(JOBC),932.2,18.3,37.42621,127.073293,37.420265,127.068414,230.0,177.0,0.0,wxlcFa_rfWV\R^ZVLNx@Zj@LRAx@H`@CXDd@C^@PCXQFAXBh@GHEN]DCF?JPBH?JEZ?FDLJN^R^BPFLHDRERVVL^H\FdADLJJJ@PEJ@F@JFFRRTHd@PXBPFLDRLd@RPHBHLVHTR\l@LZD@HENHH?Nb@AL@DPVj@`@Jb@TT
19691923,공항에서한바퀴,5322.0,0.1,37.428822,127.11689,37.428854,127.116902,541.0,120.0,4.0,cimcFqozfWLAHD`CBJHB?PCXAXKt@AZGr@APCN?VGj@CJC`@AJEN?\Gl@CFEl@AFEx@AHEV?\EP?`@GZCHCB@`BKB@BAv@@JDN?B@DAf@@NBd@BB@JAv@@B@RAl@FdAG^D\?JEB@P?d@GR?n@K`@AhAWTALGH?HCNCxAe@VKb@MLGBCPAf@WNEBBd@GNGPSD?FE^BROb@ORMF?h@Uj@KBEJARKD?RIBERIhAo@BE^Qn@e@hAq@JCb@[RGXSt@[`@c@PIF?ROPGTQTYLCNMLAPI^[ZQRGHIVIT[\GFGF?x@m@r@a@r@i@LEVOx@i@dAk@@EZQREBE|@c@j@[HAb@U\CHEJ?b@Kn@YNABENA~@YV?BCJ?LEJIp@WNALGF?FCF?`@IRGTOf@GLGH?n@OH@HAHG@GIu@E_AIEKBEFK@KF_@Dq@VWDIDGAIDO@w@Zo@H{A^[LO@g@\CEQ?[HM?_@L[@GBq@HKFe@Lm@Z{@p@G?MFGFc@RADC?UPABGBYZ{@b@CBa@PGFYNWPC?KJs@`@YTc@RIJOHMJGVOBS?OFO?SEUB_@XGJCR[^WLSDa@XYTM@GDgC`BC?MJG@WPi@RcAr@aAj@QF[To@Xk@NMHYFIDK?GFUHq@NKFYFSHG?g@Jo@VUBOJK@UJq@PADO@MFG?UNSDG?MF_@FMFY@c@NiAFMBa@BC@KAGBW?C@MCI@CCe@Jk@GCCg@GSGI@SAUBCA_@?CAQ@KCI@OEa@FEAGBm@C}@RU?[DGBK?KDCCw@By@H]?SFY@_@Jc@?CBCCODGASBW?YBOBo@@KDU?]F{@BIDY@KDQ?C@W?EAA@CAO@MAC@UAKEI@MAOFUIG?m@WGDCFCj@G^El@
18053407,K-16 Lap (start by goal),394.2,-0.0,37.452352,127.107956,37.452339,127.107974,15446.0,312.0,3.0,e|qcFuwxfWK`C^PhANdBBH}A?}AIC{@I}AQc@@Al@
21074200,진옥자전거캠프-성남누비길(인능산등산로입구-내곡터널)(JOBC),2000.9,7.8,37.434593,127.076025,37.441046,127.080843,1038.0,661.0,0.0,emncFcprfWGHKd@k@x@Ol@IDQES?IEOAORg@SQ?ECg@Eu@HIAMOYGGDIJM|@D\Ed@Wz@Y^Uj@g@XUA[?a@FQ?UGK@A`@ENm@t@EVMPYfASPKC?BMTCLe@f@DZAHEDKDGJ_@ZiAWa@QkAVq@RG?QGEBUBWGMD_@I?DOJ]SBDMBSJW@CFOFs@Ea@@UMU[Mc@c@WEMP]Be@Na@Fs@?KKYIe@C{@GOAKBm@HMBQEIGEEQ?SCMDmABOTQHa@G[KmAEMA]Vs@De@FQ@WP]TQDUD_@EU?i@GUFg@FYXk@Be@Ae@Pk@FIFgAGg@J_AJWLe@\e@H]LWNs@
21074308,진옥자전거캠프-성남누비길(인능산구간)(JOBC),1844.1,4.5,37.452445,127.090742,37.440344,127.081426,275.0,142.0,0.0,w|qcFclufWH@l@?p@\N@H?BIPGLSFCFB^fAb@~@X\v@b@dAbAh@^NJVBDFPD\ZVLFJZXJNRJ^\z@LV?^Ip@G\Q`@KXE\JV@h@Pd@H\LTAV@f@G^Ld@?lB]TBn@XDFFPJLDJRDBTRXJ\JN\~@HHZVJXHHBVAPe@zA?LF\P\Pj@FVCL@NDD@HDFf@t@LXFn@Bx@Fd@PJVDRJV@JBh@d@PH`@d@LDPBf@@n@Gl@@NAj@HzAv@PT`@r@DVHV@XN~@JTLNTb@NHRPLXLB
21074178,진옥자전거캠프-성남누비길(인능산등산로입구-인능산정상)(JOBC),2965.4,5.9,37.434608,127.07601,37.445038,127.087848,1012.0,515.0,0.0,gmncFaprfWOf@m@~@Ol@IDQES?IEOAORg@SQ?ECg@Eu@HIAMOYGGDIJM|@D\Ed@Wz@Y^Uj@g@XUA[?a@FQ?UGK@A`@ENm@t@EVMPYfASPKC?BMTCLe@f@DZAHEDKDGJ_@ZiAWa@QkAVq@RG?QGEBUBWGMD_@I?DOJ]SBDMBSJW@CFOFs@Ea@@UMU[Mc@c@WEMP]Be@Na@Fs@?KKYIe@C{@GOAKBm@HMBQEIGEEQ?SCMDmABOTQHa@G[KmAEMA]Vs@De@FQ@WP]TQDUD_@EU?i@GUFg@FYXk@Be@Ae@Pk@FIFgAGg@J_AJWLe@\e@H]LWNw@JWPSTMJYf@SBWAKg@YM[IEMMQu@Cg@Qq@c@aA[U]Sc@[_@K[C[IW?u@Vi@AOK_@a@q@c@MMS?OC}@WQKKc@MmBUi@W[GOGGCKAc@I[[q@IYCUBSf@wAA_@O[c@g@Ss@QYMk@KQ
4135954,Segment,864.6,5.3,37.441814,127.083314,37.445404,127.088176,1254.0,744.0,0.0,izocFu}sfWEAMMOG]?SCMDGAI@WHCDYDG?SGSAKOi@c@IAQQKQKBME[KSAk@UIUCSBUK{@BMAQISIKEMIEKKAIEC@?GAGq@IQG_@Sc@EQCe@DM?SFc@HMDA@K@?@SBACOC?@@CKIOIAEIICGIIQMo@CCQ_@?MIGAMOOA[C?BGHADD?BIBCFCA@?@BHMDYD?CA@A@NB?EEB?@BAGG@?GC?ANCDEDK@IHEBOII_@EG
1984289,심곡동 396 93 Climb,467.0,13.6,37.449186,127.088429,37.445423,127.088361,679.0,190.0,0.0,khqcFs}tfWr@FFDLEJ@NIJ?BC`@GTMDGJEPAHCh@CH?PJJ@@DHBDARLT@PFL@NNJDVKHBn@GH@XRn@APEROZGHANIJ?BBN@@DHHJ?JFB?
32381372,(RUNSDONE) 인릉산 정상아래 UP&DOWN ,395.9,-0.8,37.451452,127.090656,37.451425,127.09068,64.0,27.0,0.0,qvqcFqkufWH\FHAHFHZr@VXXXbAf@d@j@d@\JBOEi@e@U[sAs@]a@Wc@Yq@Gk@
38990602,Right-Base,1312.3,1.2,37.428927,127.116527,37.426756,127.102549,2699.0,445.0,0.0,wimcFgmzfW?fALz@DbANdAx@hCLv@ZvAjAvDf@fBCRiAbDi@hBKp@E~@@RZdBz@hEh@xBh@|AHl@Rp@V`CVfANdAJpA@z@P|AJzDCvCJbA
17525597,성남종합운동장 한바퀴,1107.0,0.0,37.432229,127.139428,37.432198,127.140566,15035.0,652.0,7.0,k~mcFk|~fWD?DE@IPQBGB?JETSDg@FYCCWmAKGEGGAw@EMFa@b@SHQL]^q@~@Mr@B`@Vl@PHf@BJDNAVEPMTGJGLU\WNWXSLs@@w@?GEKAUKOEAMBMQGBECOSCDEAKDOTGBMNG?STIB[TGNOROLEJYXIRAJXjANL\FJATB`@Ih@[VId@g@DALMRGL{ACQCGOII?CC[m@UC
20171232,성남종합운동장 반시계 1바퀴 #김진성,450.5,-0.1,37.433182,127.136698,37.433179,127.136639,251085.0,1854.0,4.0,kdncFik~fWNDXDPCVQTc@Di@Io@Mg@[gBQi@Ua@SO_@@c@RKRGPC`@Df@h@zDRf@XT
33658975,솔치능선(동 > 서)_트레일러닝,3090.4,-2.5,37.426479,127.179444,37.427608,127.152909,64.0,33.0,1.0,mzlcFovfgWD`@JD?JCBBFE\St@Kv@Dd@f@nADRVr@ARHx@A`@ETAfAMh@Ab@`@pBDLBTO~@WVQZCNKPATWvA?PBZMv@EHE\Aj@Vn@Bd@H\@TCh@I\w@dACL@HM`@AVBD?FNj@E^J`@AVJXJNh@d@P^f@x@CZBXCLEvBKTGVQTLV?d@ERCDE?YZM@o@v@CZG^MZEX@HBDDNJHLPPZNNHTCTMh@OJINAJLp@Kz@@d@]p@DDXc@CBE?IHYf@C?J]_@|@IZEHE\IRU`@WTUJUF]@UCOFGRCj@Fr@A`@DZA^G|@OXS`AAXPXXx@NAF`@Ja@JlBP~@@\WhACb@@VFNj@d@VXDNJBXTDHDl@HTTFr@Xd@b@bATTL^n@RDl@r@T\?\FTAf@LVDPLXLt@?LAFI@BTMr@?b@QdAKXGhBFRXf@RZNNFN?TTv@?`@BNG\KPK?EFKBABI?KJODOCWNUFSGa@JGEm@Ag@JMG_@Eg@HIG]CMEGFY?UH
39576067,가천대트랙 3레인 역방향,373.2,0.0,37.454862,127.134822,37.454872,127.134846,4996.0,155.0,0.0,{krcFs_~fWaCJWE[[Ei@Je@ZWh@EbCId@NPb@En@Y^G@k@B
33658971,솔치능선(서 > 동)_트레일러닝,3090.1,2.7,37.427585,127.152902,37.426479,127.179514,66.0,35.0,1.0,kamcFspagWn@ORHN?NDh@GXBJFLANEZCd@BXAXDFA\KLMNBPAHKD@ZQNEBCBIBWCa@O{@@MOa@[Y?@CIQg@KMG]F{ANe@LiA?UTcA@YMa@E_@KOGYECEG?MB_@ISDSESIQi@o@m@[Ue@_@Qw@SOOEAGIKI]GKKQEOWKo@GAMOQSKQSUi@a@GQAe@@OTu@@k@Eu@Oo@Se@Mq@m@?IaBBMNc@Hc@FI?UHmACO@e@Io@F_ANSVAT@TCx@a@Xi@FS@a@\s@NOP[LKJE?CGGWd@e@k@fAyA@CIu@H]T[Hi@EU]a@GOMMUg@BQTs@@a@DQb@m@HGPC@GPMBE@GFK?o@IMRYBSJOB_AB]A_@BO?w@g@q@Oe@k@c@MSEQAUGi@Ai@Oi@BKCG?I@QJOAOx@eAJUDWCo@CWES?a@S[CU?g@@UHUFg@?o@DYT}@B]FKF]PUPUNg@B[AWMc@UmA?k@@SHOAc@?[DWBm@GSAcAMUIc@Oa@[q@G]Du@Ro@Hw@DKAGA@IIG[DQ
6069267,Segment,496.2,8.1,37.428985,127.137508,37.424719,127.13812,154.0,123.0,0.0,cjmcFkp~fWTQt@[JCLBRAZUPIdA]jBa@~@Eb@Bb@Ab@DnDNnAAnAB
20171240,성남종합운동장 2바퀴 반시계 #김진성,881.5,-0.1,37.433182,127.136698,37.433132,127.136677,120704.0,1807.0,0.0,kdncFik~fWNDXDPCVQTc@Di@Io@Mg@[gBQi@Ua@SO_@@c@RKRGPC`@Df@h@zDRf@XT\F\GRSPk@@_@u@}EQa@KKQG[?IB_@ZO`@CTn@pELb@HLFFRF
20171242,성남종합운동장 3바퀴 반시계 #김진성,1298.8,-0.1,37.433182,127.136698,37.433102,127.136649,76933.0,1773.0,0.0,kdncFik~fWNDXDPCVQTc@Di@Io@Mg@[gBQi@Ua@SO_@@c@RKRGPC`@Df@h@zDRf@XT\F\GRSPk@@_@u@}EQa@KKQG[?IB_@ZO`@CTn@pELb@PTRFT@TANIDEJc@@WG_AESC_@S{ASk@MOSIWBYHGF]l@?LHf@d@pDRb@LJVJ
20171248,성남종합운동장 4바퀴 반시계 #김진성,1717.2,-0.1,37.433182,127.136698,37.433154,127.136703,55368.0,1736.0,0.0,kdncFik~fWNDXDPCVQTc@Di@Io@Mg@[gBQi@Ua@OMc@?c@RKRIVAZDf@h@zDRf@XT\FPCJCRSPk@@_@w@cFO[KKQG[?IB_@ZO`@CTn@pELb@PTRFT@TANIDEJc@@WAc@Ko@C_@S{AOc@QWSI[DUFGF]l@?LHf@^|CLf@JNHHZLR?PEVMP]Hg@Gg@Kg@O}@Iy@Ia@MQYWUCUDYTKNMZ?LZvCVvATTPH
20171253,성남종합운동장 5바퀴 반시계 #김진성,2139.6,-0.1,37.433182,127.136698,37.433088,127.136686,42643.0,1687.0,0.0,kdncFik~fWNDXDPCVQTc@Di@Io@Mg@[gBQi@Ua@SO_@@c@RKRGPC`@Df@h@zDRf@XT\FPCJCRSPk@@_@w@cFO[KKQG[?IB_@ZO`@CTn@pELb@PTRFT@TANIHOHc@?c@Gi@ESC_@S{AOc@QWSI[DUFGF]l@?LHf@^|CLf@JNLJ\JL?PEVMP]Hg@Gg@[eBQuAOWYWUCUDYTKNMZ?LZvCVvATTPHPDNAJCZQRa@Dq@c@mBSk@?OKc@M]UOUCSF_@`@I`@Dh@h@tDHXPVXJ
9502646,성주산_공수 약수터 업힐 ,453.1,15.0,37.462672,126.773467,37.462601,126.777797,710.0,197.0,2.0,u|scFcmwdWLc@Fi@c@c@]Ya@USWOg@Kk@@O\{@b@qAb@_AR{@Fk@C_@Fm@RkAOsB
32167626,웃고얀공원5회전,1694.0,0.0,37.4757,126.81161,37.47563,126.811584,2048.0,88.0,0.0,cnvcFq{~dWUe@S?SP?XI\{@p@GVWDOTGZFZTLTDTKNMJUp@Q@aANQXg@Gu@KGUFQNKTAXw@t@IXSFQNCVB\PLV@TM^m@NYEMFSv@u@@[IYMKSAOPGv@g@b@c@d@m@BOH@b@F`@JZ^Jj@OjAkAd@{BAYK[WESHMTAXIXg@ZGZFPY@SRGZBVNJR@REZk@ROJSB[RONWL[@]G[UCWDQP?^IXOLSH]f@W@MVAVFXTRV?TKVg@TKJWD[\c@J[LS
30291440,진옥자전거캠프-거마산(송내공원-거마산)(JOBC),1762.7,9.7,37.479813,126.764039,37.466633,126.765899,23.0,16.0,0.0,ygwcFerudWb@J|@?t@NPC^HL?XFJQDA|@ZLJLIRCLEN?h@YHMj@]Nc@t@aAAMCC@CC]Rm@@SCA@[Lc@F[T]f@QT?NETBRML@PIHQPGZLH?DJD?RN@JHHBHAHDRHFHNZHL@h@VLCNK`@Md@g@Hk@Ri@LSTMPWd@_A@KNI@E@OBC?IZ]~@_@^EN@b@KLHp@MPOTAXIZBBLRRXRTRh@XRHNJjAh@b@FHBTJ`@^j@^j@Tj@Dj@`@~@NNAb@JhABf@I^SNEd@FTH`@Fl@?VBh@ARBZERJ
29268256,진옥자전거캠프-성주산(하오고개-팔각정쉼터)(JOBC),996.8,7.2,37.476212,126.786357,37.4719,126.778478,242.0,101.0,0.0,iqvcFu}ydWTFLNR@TPJBJ@JAJBN@HDBAFB@Cb@@VJHFJVJLRFNVb@PFH@JZJ\TPFb@EX?HBZl@PPF@d@\d@n@NN|@d@NCVDHTD\Bv@DFDd@^rADZTp@Rz@H`@Tj@?DHLB\DBBPD^BB@ADJCHCBDLCJBDERFTLX?j@Jh@GPCREF?RFFD\Gb@C`@CJAl@ILEb@ED?RGP@HALOLSH
20885896,관모산 650계단,131.2,34.0,37.455437,126.760771,37.455297,126.762233,317.0,152.0,2.0,morcFy}tdWC[DEHU?WFY?]H_@RO\YJWUEWYQY
29268303,진옥자전거캠프-성주산(종점-하우고개쉼터)(JOBC),1558.9,2.6,37.474072,126.770734,37.474132,126.785148,93.0,54.0,0.0,}cvcFa|vdWAK?[Q_@@GGQDIBg@HEb@ADCNOXMPYTKFQLMDULKPGDEVE^MHUAOFQZc@Pm@@OAGLY?CR]Ry@N_AHOFGJWA]Jq@DC?MDOK]DWKa@DQ?]FOIUBAGW?UQOSa@EO?@GGC]EC?IQQ?IEU?OEGCSJa@T_@FSD[A_ATc@B[N[d@UNQ@WJUTcA?YHm@?YEUF}@?}@Gy@Ku@?Y@IAUI[AUIOM{@Uw@E_@KSKg@MaAKe@Ue@DWAGKK@QEYCECIC?B@BC@KG[ICOBU?ICQWOK]e@WSWIM]E[GMIEKKOKg@D[C]G
23066535,진옥자전거캠프-소래산(정상순환코스)(JOBC),1141.8,0.1,37.456689,126.778102,37.456634,126.778087,310.0,157.0,0.0,gwrcFcjxdWTg@T_APSXe@Gq@AcAD_AFYJIX]d@OLADCD?PG@GFGXOD?HWNCFSH@JAHIHDT^d@FDDF?RPJv@HXLRX^HFLRPJHNF@PPDFBBHABHFBN@JDJALD`@MH?b@FPAB@j@DTFNJLBPJNRN?B@AD@FB@DCAEA??DE?Y_@_@IUMIAEES?EEMCWDOCOMM@MHMEIUCg@AEMEE@OASDGFQDOEAIG?OKEEEM_@IKBSLEVGDKF[HKHCJKHELMPE\Qv@YlAO\]@OCMI_@I]?cAJ_@Ai@PIH
30460539,구공수언덕400M,404.9,-7.3,37.478957,126.773211,37.475998,126.770773,700.0,70.0,1.0,mbwcFqkwdWTLZFx@XVA\FJH`@PRDhAf@hAbATd@^j@J^~@bB^f@RRNJPD
23073536,진옥자전거캠프-부천순환둘레길(만의골거마산입구-거마-성주산)(JOBC),1312.3,11.2,37.461235,126.766692,37.47175,126.767448,330.0,67.0,0.0,usscFybvdWIJO`@[RI?IAm@a@i@SKCc@?k@P]?KG]GGKCQGK[CMJM@KFKBSVOJAAKDS?MFo@FIEC?]HQNY?KHa@CIHG?[NURc@RUB_@CIKE?[De@RSBQHEHMJGLK@ADGUOGOUEE_BEm@FYAWCS?ECKKOEK?KDiAN_B?m@Ie@?c@GICMQMEMMO?O@MCU?[WWMg@s@m@Gg@SQMWIi@YYG}@e@KMCE
29268335,팔각정쉼터,284.4,22.9,37.471686,126.78157,37.471879,126.778484,624.0,184.0,0.0,_uucFy_ydWD^BB@ADJCHCBDLCJBDERFTLX?j@Jh@GPCREF?RFFD\Gb@C`@CJAl@ILEb@ED?RGP@HAL]T
21994453,YNRA_남부수자원생태공원,2340.5,-0.1,37.470314,126.828525,37.470438,126.827959,687.0,92.0,1.0,mlucFgebeWKXQ|ARd@`Ah@^Z`@T`@iA@@BMRi@Te@`AwCVg@Ii@_@_@a@E]Vc@Hc@C]ZUd@Qf@]b@Sh@SxAJh@~AjA`@Rv@yBpAsC^wABYWa@_@YeAXm@K_@TYd@Mj@u@`AKl@K|AT`@bBfA`@LFMVcARk@dBqEJo@Yc@]]_@N_@Tc@Ie@F]h@Oj@Wd@[ZOj@I|AT`@|BzARe@Nk@~@{Bh@}AVe@Li@Oe@a@Ya@G]XkA@]ZUf@Qj@]\Wh@Gj@Ct@
21490001,YNRA_Pureun Loop,1298.5,0.1,37.484431,126.823912,37.484344,126.824093,1788.0,144.0,11.0,udxcFmhaeWN_A?[He@\eAF_@COEEAIq@}BWQYi@w@}B_@a@m@_@@ITg@X_@ZGZ\p@bAVh@p@z@N^Nz@VJz@pARd@TVp@j@`@NZXn@x@Vd@?Ja@b@Qb@XrA@BE@AP@RFTIh@GFMDqAv@e@Ly@b@c@Ng@DGAQ[o@oBIk@He@CCKCEIHm@T_A
26722275,Yeokgok Stream (역곡천),3275.0,0.1,37.465852,126.841608,37.48257,126.819593,1624.0,307.0,6.0,qptcF_wdeWLd@?jEDx@Z`DAn@DvAf@tIF|AB`@b@hD?p@FjBCr@e@l@S^Y~@w@nBG\CpAKpAMnAIzAEd@u@hAm@jAY`@g@jAiAzBu@z@Ub@Sf@Gd@k@`IMj@MZQV[Xw@Nc@JgBp@oAbAwA~AW^[Ty@jAa@Zk@TKHQDc@Xw@^_@HkA\k@Xm@`@eAbA{A`B]Zg@Xo@V_AJiAZoAFg@FaCAc@Fi@PK@Q?KBQCw@CuA[o@GMI}@UWFWLS@iAX[VEJq@~@e@`@SJ[`@q@p@]d@u@lA]ZULQ@m@I}@a@w@Ua@SUCE@AFe@Ry@t@[HS?
28298058,목감천한바퀴 by 뚜비형,8297.1,0.0,37.481402,126.851381,37.481354,126.851394,493.0,97.0,0.0,wqwcFctfeWKeA?q@Es@e@uAQ[]a@q@i@e@{@iAeB]YoDwAsAm@kBo@YOMG]_@c@q@e@yAKu@Ee@Mo@@uAEm@I][k@?Ke@{@]a@g@g@kA{@o@o@YSgC}BmEkDaCaCk@c@_C}BQ[Qg@Si@CSSqA@YWaC[sBu@aBiAoBaAsAeBoBWSAIB?FRp@dA^v@x@n@d@l@z@vAt@xATv@Ll@RpBCf@B`@VdBNh@\|@V`@`AlArAjA\Vl@j@^Xj@f@lAz@tHvGp@f@d@ZXXl@f@Z\d@~@N`@Jb@JzAA`@I^@r@`@~Af@fAZ`@ZXl@\tFxBjCnANJlA|Az@tAd@`@^l@\`ANpAF|@C~ADdAMvBUl@_@pBOj@ILIl@Ur@K~ADp@Lj@h@tA?Hv@fATLRZfAv@f@Nl@DjDJpHXj@Ht@Dr@Hn@An@Nf@@FCf@@~@Hf@HjA@ZB^?ZB\ArBLpANp@DtALjGTlAHx@?pBj@lAXhAPh@RjAz@xAnAbAhAn@d@tA~Af@ZV\x@x@t@j@f@Nj@JZDb@AIG]E{@Oe@MUOk@a@mAkAYa@cBcB_@[KE_@a@mBgBg@a@_Am@u@Y}Ce@UJI@MGID_@Sc@QuBYeAEk@?oAOiBOg@?sBSQCOBs@CkIq@i@ASEsACeCSe@Aq@?{AQs@@sAGcDGg@@{@G{@UOIs@m@i@o@Oa@Mm@Sm@Oo@IiAFeB\iAPsAn@kCNsDKkA
17347817,목감천10k run,10008.9,-0.0,37.476521,126.845875,37.469155,126.844188,332.0,52.0,0.0,gsvcFuqeeWz@RN@FAVDNGJBFEDBDED@`@OR?XFJ@b@RPD`@RBChAAVFHI`@Jl@E^Kx@@dBl@RCjANV?v@HR@VC~ANXHJ@d@PDKH@tBl@fARh@T`An@dA~@\Pt@~@n@h@`@d@^^p@d@`@^BABLr@x@\Z^V^JdAP\?BCk@J[@u@Mc@Ok@e@q@s@IOKASY_CaC}@eA{@y@yAkA{@e@m@OkCc@[MC??DEAYISQQ?EESCuA?a@G]@UAW@SC]BWEi@AMDQ?e@EkAUa@?g@Kq@AQEQ@@CMC]?gBI]GO?y@I[?s@EU@QCS@e@Aw@MoBQ_BUW?[EO@_@EO?q@KwAD{@Ca@C_@@a@Ee@?YEm@?s@KWKUOg@a@YQOSCOSo@MDCCEOWe@Ke@MwALkA?a@AQF[?[g@m@DE\CFMR}@F{@HWDYR_@J]Bw@@uBM_CAk@CWYs@g@aASSw@m@KSU_@Wi@e@o@c@c@c@Ug@G}@WIGe@So@]w@Mc@QSCoBqA_@o@Uq@A_AEa@Ki@A[GSGGE_@CiBGm@Og@a@u@y@c@WSAEOE]U}C{Cq@g@q@s@[SQQWQQUi@a@e@[q@TRs@@FQIc@e@c@S]BW[KEGOKIEGe@YEO]WGCIWBO[o@G[IQc@wAIm@Um@Gi@?k@IeAQeBOm@e@}@Y_@{@yAeAiAUYYW_@k@f@Xx@l@v@|@t@xAz@xAP^J\TbBLpBCx@\jAHh@L^Rl@b@p@RRRFhAx@n@ZJBRJVRJLv@j@X\~AvA\`@~@x@`@`@d@^d@f@v@j@bAbA\T~@x@TZ^h@P\T`AHr@F|@?l@Lf@FpATfABHZ`@Xf@d@`@nA^r@XTFXL^J^PrAp@h@L\Lh@j@Zb@`@b@t@nAXn@ZZJP^x@TbA?x@Fz@AbAFzAAPMr@@t@GNQVMj@w@fEIfA?hAHx@H`@d@rADV@TD@PC@BZPd@b@z@p@`@NZDjBHdDC\Ef@Ax@L`ADd@JVBbA?|AJf@APD^@h@Mb@Ch@JZ@TFb@CJDP@^FLHd@Nx@FTLLD\?^F?MFENJv@y@FANHZCTD@HDHJDHJn@TJ?PH|@Df@?|CZ`ADj@FDDF?VNLD@BZ?tB`@~Aj@pDzCXVV^h@`@l@h@rAlA@BA@H?HNx@|@~@n@ZJf@Jd@BP?e@Fg@Ak@IWMaAu@cA_AKODKACqA_A]_@aAw@o@w@w@q@
39583654,가림둘레 RUN CCW,2337.6,0.0,37.463519,126.864745,37.463488,126.864757,743.0,115.0,0.0,}atcFsgieWJTTXNh@h@p@PLRTL^Xd@\^fAxAZRt@jAVTRXJDPDDDT`@H@JE^[PUVQJEx@BhAR^?PCNIl@aA^wAPuAL_@Hs@F[\_Ap@kAFURoAJg@Pe@NoA@_@IaAAu@EaAG_@[oAGa@Aw@F_@?WIY_@Uq@iAi@w@aAy@QSCODWAKWu@]SiAy@][Ye@c@Wk@IQGe@LWLmBR]?y@MQ@QHMLIv@GVIH[Lw@NOL{@XKLEb@C~@E^GZOPELAtCCf@GJ?f@GZ?TGVCR`@nDJtA@rAFn@TbAHRJLDR
41052032,사거리- 도덕산,1503.4,10.5,37.476411,126.862806,37.465761,126.857536,135.0,40.0,0.0,qrvcFo{heWXRtAv@^HR@VAPGd@IJEVS`@On@FfAB`@?d@GP?JELC^D@FEHNFDZBFDAFFEPBFNBLEb@GB@NCHBDT?l@CFMNABBLP@JDJAZDT@PGRODKPGl@?^R^Jz@LVP^JVCVJBFF@FJN\JFBD@AFJBB?TJPLEFJHFJ?NEX?NCZOTCTTH@FDRf@DVRPPJ\EFFJ?LBHTNHVBb@Nr@HL?l@Zh@?`AQd@EHBF?JJZNNDDCBFFBH?PRN?DF@HGLBFI^?`@NnANTFXHn@^v@DTDDJ@Tj@
38364826,천왕산 업힐,561.1,2.6,37.488367,126.835214,37.485647,126.829944,1159.0,265.0,1.0,g}xcFaoceWJRJp@Zj@`@rAHR\dANZd@xANVR`ATt@j@jAb@jAVb@N`@tApCd@|@HJVPDLFDLV
30400861,QRC-아우토반,1935.3,-0.4,37.47639,126.818998,37.464303,126.83357,776.0,95.0,1.0,mrvcFui`eWX_@Nk@T_@f@Ip@UdB{@`As@bAk@^[bBeA`Aw@`@Uv@g@|@u@dAu@^c@zAwAz@k@v@{@dByA\_@nAeANQDMLKb@o@bBaB^c@bAo@`@M~@E\_@fA{BLm@TgCLqCLi@Xg@X_@\_@p@mAv@eAfAkCr@cC^cANi@\o@Tq@d@_AXc@lBgCb@kAAK
21993874,YNRA_Yeok Gok,4848.0,-0.2,37.480236,126.819903,37.481646,126.819961,417.0,98.0,1.0,mjwcFko`eWBEKA@OV]@YBO`@y@LMREJSb@MPMx@y@ZUVOPUPKRGbASfBIFAFIbAFJFDJXVz@Xh@A\BRGT?VMZAhBL^Cp@Mt@EXIbAO`A[d@SZWbBmBf@c@h@k@b@_@d@QnBm@^QtAe@PM|@_@RSf@u@V[R_@p@q@NUDCF@BJMj@?D?GNYf@s@TUfAi@nC_An@YZSV[HOIM]UCKJo@FeBRwBR_Bf@uAtAkBXu@T{@`@eAh@aAr@gAVi@FWR{CDW\gDFSVg@Ti@PQDFc@`BMp@]rEU|BqBjE[`Au@dB[j@MLAF}@~@Sb@Or@M~@OjC?VGp@_@bBUXs@f@a@Ji@XeA\MHa@HGRGJQFo@r@oBdC_@j@g@h@ULsBz@{DjAu@f@g@n@}@p@}AbBe@\s@Xo@L{ATU@wARm@@_AIq@A[He@Pk@JQAUIa@E]Ki@KUM}@M{@AoANa@JYVa@f@GPq@b@c@b@}@nAgBvB_@\OJg@HSA_@OYQm@OOK[IQC
22443947,기림산CC 한바퀴,2324.0,-0.0,37.462384,126.870982,37.462683,126.87054,17496.0,480.0,20.0,{zscFsnjeW\Lp@Ll@BV?x@Of@OZSV@JQ\QrAbADJ?DK^DJfAz@`@VX\F`@A\BDrAnA`@l@r@zA^\Hh@GVAt@`@vANp@@jBL~AAf@Ih@Sz@OXMb@SnAMXc@n@[j@Up@I`@s@lEM`@{@fAKFs@GoAQ]FuAdASJQIm@m@y@gAg@e@QYQSEM_AoAISk@s@o@oAs@{@w@sAMg@Uc@MwASqC@i@Cq@[oAEY@I\}APoAr@uHDIz@[Xe@NMN?XERILi@
14482047,Gwangmyeong Athletics track,419.8,0.0,37.461863,126.872239,37.461878,126.872204,675347.0,1637.0,19.0,swscFmvjeWg@@o@HQFOLCHIVCRB^Jb@\\ZDv@Eh@G`ACLGLIPYH_@?UI_@Ua@c@OQ?eAJ
21788484,안양천(철산대교to광명대교),980.4,0.3,37.475897,126.877672,37.484057,126.873612,37534.0,7009.0,14.0,iovcFmxkeWmEjCaBp@w@b@SDOHQNwB`A[JK@e@PC?q@^a@La@ToBr@}@b@[Fg@NS@g@TaBj@_@Ro@Pm@Vi@LWLuAVw@Z]Hg@RIDsA\
21911592,신대방~보라매후문,929.1,0.3,37.485133,126.906141,37.48908,126.915312,21235.0,3624.0,6.0,aixcFkjqeWBIGABIECAQDI@UAQQe@iAgBYmC?[Qk@_@cBSk@Mm@_@_DOk@K}@WaAM]I[u@{A]aAYc@Sk@Qe@KcAi@i@[g@WKe@kAm@o@u@iAMIa@c@AUMq@Uq@
21788497,안양천(광명대교to철산대교),963.4,-0.3,37.484019,126.873614,37.475869,126.877668,40157.0,6081.0,1.0,abxcFa_keWVGd@SnAa@b@ILGXCZ@JCRKbA]TCb@Qr@OTMLCVSl@Ut@OpB}@ZMXGXQlBw@PMP?`@OREXO`A]^Kv@]xA}@tAo@RQVOfBw@JMn@e@z@e@CB
25565593,철산대교_금천교,1441.7,0.0,37.474603,126.876612,37.465546,126.885709,2460.0,667.0,1.0,ggvcFyqkeWJATIJSd@[`@e@D?BEd@UBGd@YDEBIPIFKNMVKf@]PIh@c@LCBCF?t@c@JQJGNOb@SPAVWPSd@[P[XQPSb@UHARMLQ`@YLOd@]B?BGHAl@m@PKFKROLMB?^YpAqA^k@b@_@NWPODAf@a@\Iv@c@`@]d@[j@k@VQHK`@[NUCEiAcCM[Yi@AK@IFGRIX[HCXWB?JKFCl@e@B?@CXM@C`@QNSVUDKp@e@FC\_@XS
21911568,보라매후문~1km구간,997.5,-0.2,37.489297,126.915856,37.485102,126.906048,28946.0,3947.0,4.0,acycFagseWh@`APf@TNV^Jr@?v@HLVVl@lA~AlB\P\f@l@pBNX@JZh@l@nANl@NrATnAFbAV~ABz@VjAh@tB`@tCLrAv@nBv@dCNZLD
26071372,관악산생태공원 런-업힐 [kwssite],338.1,13.2,37.46937,126.911478,37.467198,126.913313,176.0,35.0,2.0,qfucFukreWZe@xA_@d@WDcBdAgCXYnAFb@?f@CTO
30261521,산기슭공원 짧은업힐 [kwssite],127.9,12.9,37.462868,126.907015,37.463996,126.906867,650.0,58.0,0.0,{}scFyoqeWg@CkAJkATa@?
29664505,신대방역 직선코스 왕복 1K,1000.8,0.0,37.486705,126.911319,37.486705,126.911293,1792.0,779.0,1.0,{rxcFujreWXv@HF@\AN@JJN`@~@J`ATnA?P^|AFl@HV@XLj@B`@H`@LR@TL`@H|@JNBTR~@HTJf@N^DBBHCBHYHKIM@KEKIAMMSm@Ue@CO@MYy@AUMy@?IMa@GSYu@?KAOOa@M{@YiAIs@E_@GMCa@ISIk@IMWaAMWKk@?M
10177476,서울대트랙,426.0,0.1,37.46492,126.950743,37.464972,126.950793,419329.0,3328.0,33.0,wjtcFcazeWYIU?SFUPMVITBVFRJTfCpBPPRHR?REPOLQDY?WEYISKS_@Yk@k@cAu@
6237491,Segment,611.8,11.7,37.472008,126.958674,37.471342,126.953887,,,,
6071529,Segment,467.2,8.6,37.458241,126.968227,37.45545,126.965962,,,,
12158666,순대타운,851.8,-0.5,37.484071,126.926072,37.48957,126.91998,,,,
13188666,녹두-보라매공원 도림천 Stride 2.8K,2853.7,-0.6,37.472009,126.933676,37.489506,126.920144,,,,
15105836,관악산입구 임도길1회전,3112.6,-0.1,37.468211,126.946354,37.468205,126.946247,,,,
14608336,서원동성당-신림3교,1042.7,0.0,37.478162,126.933188,37.472405,126.93326,,,,
2662204,사당로16사길 45 Climb,694.9,7.9,37.485636,126.968394,37.480826,126.965376,,,,
12306316,SNU subway to entrance uphill 650m,678.8,9.2,37.478014,126.952312,37.472035,126.953208,,,,
26868043,College of pharmacy,511.1,-0.3,37.45564,126.95197,37.459183,126.95462,,,,
26032053,UTKC_관악산왕복버티컬레이스,14479.0,0.2,37.470349,126.977344,37.47015,126.977178,,,,
28198215,라스포르티바챌린지 관악산둘레길32k,31403.0,-0.1,37.473919,126.981996,37.473966,126.981774,,,,
27310844,2021관악트레일 (개인확인용,9914.3,-0.1,37.476387,126.980142,37.476584,126.979799,,,,
26151400,TRB산러너_남부순환도로_관악산둘레길_오르막,468.8,0.0,37.474883,126.970974,37.471027,126.97056,,,,
21788552,진옥자전거캠프-관악산(낙성대갈림길-연주대-낙성대갈림길)(JOBC),5122.0,0.0,37.461426,126.97046,37.461494,126.970566,,,,
5830597,Segment,331.0,20.3,37.46553,126.972839,37.464649,126.974327,,,,
6280518,Segment,484.5,14.3,37.479201,127.0163,37.476515,127.01797,,,,
1448526,서초1동 1185 Climb,1039.5,12.6,37.48249815311283,127.0204734429717,37.47585264500231,127.01678783632816,,,,
6521843,Segment,382.0,12.0,37.475846,127.005987,37.475926,127.009761,,,,
19117105,Flea Market 400m Reverse,409.0,-0.6,37.484264,126.982811,37.480627,126.982616,,,,
13632454,KR-Seoul: Yangjae Stream: Downstream-Upstream 5km,4994.0,0.1,37.487555,127.055936,37.487032,127.056135,,,,
18677178,영동2교-영동3교 (시계방향),2069.5,0.0,37.47956,127.043594,37.479454,127.04357,,,,
18443666,시민의숲 to 대치중,1233.4,-1.2,37.47419,127.039063,37.482419,127.048126,,,,
3141365,개포4동 산211 4 Climb,577.5,18.8,37.470672366871966,127.06812992238676,37.46932016463988,127.06241067727572,,,,
6237476,Segment,364.4,17.3,37.471896,127.053617,37.469363,127.053079,,,,
16288754,동네한바퀴,2019.4,-0.1,37.478672,127.042853,37.478772,127.042893,,,,
25186042,영동2교와 영동1교 사이,2072.5,0.0,37.481263,127.046433,37.47776,127.041951,,,,
26722292,Mt. Umyeon (우면산) sidewalk (east),1024.6,-1.9,37.482185,127.025829,37.473539,127.029684,,,,
6766898,구룡산/Guryongsan Climb,1628.2,17.0,37.465409,127.046583,37.469081,127.061751,,,,
24722085,꽃시장 영동3교 시민의숲,4901.2,-0.2,37.467322,127.038484,37.471121,127.038034,,,,
16611519,수서역-대모산 정상,3070.0,7.4,37.486527,127.102331,37.47487,127.078947,,,,
26075850,탄천(장지천-광평교),1471.0,-0.5,37.477824,127.117594,37.488925,127.109018,,,,
22577968,TRB - 대모산 GOGO,1023.0,10.4,37.476304,127.089101,37.474794,127.07927,,,,
21125154,진옥자전거캠프-성남누비길(세곡터널-신촌동)(JOBC),1135.1,-14.3,37.456644,127.095166,37.458535,127.106149,,,,
6034946,Segment,382.0,15.9,37.481032,127.097738,37.478328,127.097767,,,,
21262595,Outside SORI park,802.3,-0.0,37.482712,127.120599,37.482607,127.121073,,,,
24483570,율현공원 cc,1228.0,0.0,37.474246,127.116723,37.47423,127.116736,,,,
6034947,Segment,1062.2,11.4,37.47763,127.095573,37.475564,127.085554,,,,
19512331,진옥자전거캠프-수서-대모산(대모산정상)(JOBC),1265.4,11.7,37.47739,127.090788,37.47504,127.078327,,,,
22578666,TRB -대모 수서,3260.0,-8.7,37.474826,127.078912,37.486352,127.102362,,,,
23927990,휴먼링 4.3km(위례수변공원 분수대),4352.4,0.0,37.469846,127.142855,37.469878,127.142857,,,,
21102177,휴먼링 시계방향(꿈에그린),4351.0,0.0,37.476179,127.137719,37.47615,127.137964,,,,
26691996,창곡천 1000M 스프린트 UP by WBD,1004.0,1.4,37.468656,127.134144,37.469333,127.144876,,,,
26692009,창곡천 1000M 스프린트 DOWN by WBD,994.0,-0.6,37.46931,127.144931,37.468602,127.13431,,,,
23256991,휴먼링 서-동(시계방향),641.0,0.5,37.481981,127.140288,37.481862,127.147238,,,,
23256995,휴먼링 북-남(시계방향),1449.0,0.6,37.481834,127.147366,37.469338,127.145626,,,,
24035051,TRB - 남한산성 계단 지옥 서문 전망대,1012.0,27.7,37.487236,127.168681,37.48508,127.17587,,,,
18995662,진옥자전거캠프-산성역_쉼터byHS,1624.3,7.7,37.457014,127.150271,37.465714,127.160765,,,,
18891172,산성tr1,905.5,4.8,37.457803,127.150029,37.462855,127.155233,,,,
20043451,진옥자전거캠프-성남누비길(남문-하산길)(JOBC),3515.0,-6.6,37.472842,127.176784,37.457416,127.14945,,,,
11662397,중앙공원 1바퀴,1560.7,0.0,37.49873,126.767856,37.498722,126.767902,,,,
14972710,부천종합운동장 인라인트랙,721.3,0.4,37.503722,126.798639,37.503786,126.799089,,,,
22902984,부천중앙공원6바퀴,9923.1,0.0,37.501721,126.764345,37.501752,126.764375,,,,
19446521,부천체육관 달리기 한 바퀴,614.3,0.0,37.513753,126.761117,37.513729,126.761217,,,,
22324355,역곡로,1770.0,0.0,37.49025,126.80912,37.505802,126.811005,,,,
9612217,베르네천 1바퀴,1651.7,0.0,37.513656,126.80547,37.513714,126.805513,,,,
9238763,부천종합운동장~원미산 정상 ,1136.5,6.5,37.505985,126.800114,37.498242,126.802242,,,,
9238808,원미산 정상 sprint  ,774.3,8.7,37.498525,126.808437,37.498057,126.80115,,,,
15051627,부천보조경기장트랙,403.0,0.0,37.504839,126.799944,37.504848,126.799924,,,,
29743784,까치울 언덕,1077.4,1.7,37.506109,126.811012,37.496713,126.808342,,,,
12170501,고척근린공원-러닝트랙,803.1,0.0,37.504252,126.852127,37.50427,126.852132,,,,
11789704,Thr Climb,314.4,9.2,37.514248,126.831096,37.512843,126.829264,,,,
3080455,작동 산5 4 Climb,823.9,6.0,37.521256,126.820637,37.517257,126.824309,,,,
11789753,The Fall,451.0,-2.9,37.512897,126.82925,37.511172,126.832689,,,,
22303260,궁동저수지생태공원 동측,296.3,0.0,37.500743,126.829231,37.50079,126.82915,,,,
39558414,신트리공원 러닝트랙 CCW 3Lap,998.5,0.1,37.514287,126.855969,37.514263,126.855993,,,,
37408761,오류동역 1k,1003.8,0.1,37.495161,126.844008,37.495246,126.844051,,,,
38180205,계남공원축구장 트랙 1K,1004.4,0.1,37.50913,126.85552,37.50886,126.85499,,,,
11789643,Hospital Road,285.2,-0.4,37.512089,126.832608,37.51429,126.831164,,,,
39558394,목동11단지N CCW,1217.4,0.0,37.514062,126.857544,37.514055,126.857515,,,,
13677796,Skate Track - anti clockwise ,357.9,0.0,37.517243,126.880504,37.517241,126.880485,,,,
27024636,Dorim Reservior Track,231.7,0.0,37.506723,126.897868,37.506718,126.897859,,,,
12075130,Back Straight - Finish,860.9,0.4,37.515044,126.882284,37.510983,126.890427,,,,
14556625,고척교-안양교,708.0,0.0,37.498419,126.871072,37.492201,126.871423,,,,
11845300,Home Straight - Start,904.9,0.2,37.511084,126.891086,37.515471,126.882668,,,,
28028127,양천공원 둘레코스 by Derrick,731.2,-0.2,37.518883,126.868226,37.518904,126.868136,,,,
11678790,OhgeumGyo - Foot Bridge,1237.0,-0.0,37.509847,126.872781,37.518435,126.879274,,,,
12075113,Ohgeumgyo - Shinjeonggyo - Reverse,1053.7,-0.0,37.507729,126.874675,37.515648,126.880827,,,,
26653817,Dosin-ro 9-gil,373.1,0.9,37.505177,126.897149,37.507792,126.894948,,,,
12067543,Omokgyo Br - Oh Guem Gyo Br,1806.5,-0.3,37.524,126.87837,37.509697,126.872754,,,,
6471711,여의도공원 산책로 트랙,2514.4,0.0,37.524679,126.921424,37.524584,126.921311,,,,
10794949,R 보라매공원 1바퀴 0.6Km,632.2,-0.1,37.493116,126.920122,37.49311,126.920145,,,,
18725216,SF 10km Finish,805.6,0.8,37.52093,126.961238,37.517589,126.96933,,,,
5663897,Han River Bridge Island half lap,929.3,-1.1,37.518157,126.959647,37.516655,126.958862,,,,
16715116,한강철교 → 한강대교,523.6,-1.9,37.523248,126.955949,37.52068,126.960827,,,,
18165731,숭실대뺑뺑이,363.7,-0.1,37.497572,126.955426,37.497566,126.955399,,,,
6648790,φ Noryangjin Park Traverse [South],938.9,4.1,37.511606,126.95332,37.505667,126.954104,,,,
15767911,여마클 10km,10006.8,-0.0,37.524762,126.936428,37.524552,126.93668,,,,
16086545,서달산자락산책길#1,432.0,1.4,37.494868,126.961983,37.498023,126.960285,,,,
9202368,Dangjak Climb #4,650.4,3.9,37.493544,126.966068,37.497129,126.961938,,,,
6483079,Seoul Flyers 10k Loop,9883.8,0.0,37.517425,126.970055,37.517384,126.970026,,,,
27261773,잠달(한남대교 스프린트) 한남->반포 방향(한남대교 엘리베이터 옆/파란이정표->잠원나들목 횡단보도/파란색 한강 이정표),447.4,0.0,37.524605,127.015799,37.52146,127.012764,,,,
5408002,반포대교 (북쪽),695.0,0.0,37.512577,126.99738,37.518403,126.994545,,,,
19302594,Ichon Dirt Path(E2W),923.7,-0.6,37.51483,126.980972,37.516565,126.971039,,,,
8301826,교대 트렉 1바퀴,412.0,0.0,37.491001,127.016068,37.491056,127.016122,,,,
1510863,반포4동 49 6 Climb,844.6,6.2,37.50352080449229,127.0059354511341,37.49721912204986,127.00763119396474,,,,
1510864,방배4동 산17 3 Climb,339.6,13.9,37.4940205877996,127.00313832622672,37.49249596152221,127.00042619381752,,,,
19010968,Bogwang Tunnel to Jamsu Bridge,999.0,-1.2,37.524404,127.002702,37.518948,126.994525,,,,
12871071,banpo to ichon,2095.8,-0.3,37.518446,126.993044,37.516851,126.970511,,,,
9202354,Dangjak Climb #2,721.6,3.9,37.49789,126.978774,37.493765,126.973269,,,,
8356973,잠실보조운동장 400m,402.7,0.0,37.517032,127.070273,37.51703,127.07028,,,,
12333537,Memory Gongs,118.8,9.9,37.503671,127.069559,37.504296,127.068669,,,,
1237484,Seoul Korea Park Run,1992.5,0.0,37.5111568,127.0501283,37.5111724,127.050058,,,,
13637576,KR-Seoul: Dogok-ro - Teheran-ro 1km Block,919.3,1.2,37.494357,127.047089,37.502066,127.043293,,,,
20513634,양재천 1.5km (kooR),1466.7,0.0,37.50032,127.073828,37.490596,127.067227,,,,
6169530,sinnonhyeon hill,366.9,10.1,37.50476,127.024851,37.505872,127.028697,,,,
12368034,I love apple pie,162.0,2.6,37.513505,127.060019,37.513766,127.058535,,,,
11272585,Seonjeongneung Park counterclockwise,2036.7,0.0,37.509172,127.044347,37.509244,127.044269,,,,
15088931,canal parkway oob,7723.1,-0.2,37.500283,127.072385,37.500216,127.073746,,,,
12287096,Seonjeongneung Hill,478.3,4.2,37.509059,127.052889,37.510888,127.04891,,,,
6884991,석촌호수 런닝코스,2533.9,-0.0,37.507053,127.098628,37.507086,127.09861,,,,
14710004,SLakeCircle Start East,2651.6,0.0,37.513088,127.106923,37.512999,127.107182,,,,
26829624,만남의광장 에서 족구장까지 업힐 JS1,590.7,2.7,37.517979,127.117077,37.51804,127.122705,,,,
21761338,돼지런 스페셜 : 김승현 PICK,2831.5,0.1,37.518229,127.126048,37.518189,127.12599,,,,
20513649,탄천1교~탄천교 (kooR),1822.5,0.0,37.499726,127.081592,37.49337,127.100481,,,,
8461366,올림픽공원(에너지런),2803.3,-0.0,37.519108,127.116511,37.519124,127.116739,,,,
26829641,성내천 올팍공원옆 JS1,910.6,0.1,37.523934,127.12708,37.524424,127.117533,,,,
22660585,IrwonEcoPark Small Loop J.K,531.3,0.5,37.494712,127.086935,37.49469,127.08694,,,,
14091996,석촌고분공원(반시계방향),847.3,-0.1,37.501406,127.102458,37.501372,127.102367,,,,
15225787,잠실TR 10KM,10018.4,-0.0,37.518287,127.081544,37.518081,127.081515,,,,
8231184,올팍 장미공원까지 스프린트 ,235.0,-0.6,37.51541,127.130098,37.513246,127.128998,,,,
18845336,진옥자전거캠프-성불사_전망대byHS,1267.1,20.2,37.490035,127.162058,37.490601,127.173875,,,,
25184475,TRB-거여공원 한바퀴,388.6,0.0,37.497293,127.141453,37.497276,127.141435,,,,
23927113,TRB - 오금공원,256.0,-3.4,37.503239,127.132623,37.504304,127.133074,,,,
16852736,올팍 SN,883.5,-0.2,37.512866,127.128442,37.520038,127.133245,,,,
25933753,TRB 화랑- 오금공원 버티컬3,220.2,-0.3,37.499891,127.13376,37.499933,127.133728,,,,
6213740,Segment,451.4,9.3,37.519626,127.17538,37.522419,127.1786,,,,
6693151,Segment,775.1,10.2,37.49899,127.154807,37.503426,127.157583,,,,
5562883,Segment,775.5,9.4,37.517031,127.171467,37.520284,127.178177,,,,
30415242,TRB - 성내천 굴다리,740.0,-0.1,37.512253,127.135219,37.505882,127.136448,,,,
16582021,오정대로_샤콘느_1.4K,1459.7,-0.4,37.534037,126.806189,37.532256,126.790116,,,,
32646123,"BX 오정대공원 트랙 1,000m TT",1003.0,-0.0,37.529437,126.794496,37.53047,126.79392,,,,
13873850,휴레 우장산TR B코스 900m,922.1,5.0,37.553883,126.843524,37.551265,126.84231,,,,
21967516,서서울호수공원 몬드리안A,934.5,-0.0,37.527559,126.829863,37.527572,126.829829,,,,
13873770,휴레 우장산TR A코스,1539.5,0.0,37.549154,126.842697,37.549197,126.842644,,,,
17220825,NBR277 C코스,1967.5,0.0,37.540769,126.820111,37.540791,126.820151,,,,
5494470,Segment,536.3,8.5,37.552035,126.840404,37.551278,126.843358,,,,
21967575,서서울호수공원 몬드리안B,101.2,-1.7,37.525854,126.831072,37.52661,126.831554,,,,
23003773,강서철인클럽 근전환 코스,1335.4,-0.5,37.546542,126.824119,37.546612,126.824141,,,,
16942777,NBR277 5K,5011.5,-0.3,37.541272,126.825287,37.543726,126.819057,,,,
16942734,황소와악돌이10K,10084.9,0.1,37.540073,126.820161,37.540765,126.82021,,,,
6585484,Segment,592.9,7.7,37.552615,126.853323,37.549766,126.857841,,,,
16918444,[hirun]망원유수지 트랙,459.5,0.1,37.55758,126.8979,37.557602,126.897931,,,,
21239045,달리기,1955.0,-0.3,37.554401,126.875625,37.539597,126.886288,,,,
15776404,여의도 8.2km,8151.4,0.0,37.529377,126.91072,37.529348,126.910656,,,,
17049177,Hapjeong to Seongsan Bridge ,1570.0,-0.1,37.546505,126.906936,37.555672,126.893805,,,,
6638054,파리공원,726.8,0.0,37.533844,126.876819,37.533825,126.876781,,,,
13378457,여의도LSD코스-8Km,8198.4,0.0,37.533447,126.909824,37.533583,126.909259,,,,
13069367,양화대교(남->북),999.0,-1.2,37.539466,126.900762,37.546336,126.907938,,,,
11845321,Mokdonggyo - Yangpyeonggyo,1097.3,0.0,37.530775,126.889203,37.539991,126.888573,,,,
21239097,용괴,357.0,9.4,37.541307,126.876616,37.54308,126.877102,,,,
10541753,성산~가양턴하고~성산 10km 구간-made by 우이리,9654.9,0.1,37.546041,126.890705,37.548412,126.888153,,,,
5746967,서강대교 (뿍>남),1124.5,-0.0,37.54296,126.928827,37.533963,126.923029,,,,
17428885,마포대교to서강대교,1349.8,0.4,37.537285,126.941574,37.543169,126.929527,,,,
17194605,Wonhyo2Mapo,1187.3,-0.2,37.530354,126.951454,37.53672,126.942009,,,,
8584198,여의도공원 Conrad Entry,2662.0,0.0,37.526845,126.925087,37.526544,126.92444,,,,
19025582,Hyochang Stadium Reverse 400m,429.5,0.0,37.543773,126.961673,37.543763,126.961687,,,,
26758097,circuit 250 m,264.5,0.0,37.556707,126.96598,37.556693,126.965942,,,,
11423749,[여의도]8K_2주차장기준한바퀴@ddamdo,8215.2,-0.0,37.528637,126.931716,37.52877,126.931568,,,,
5422492,여의도공원 (Start/Finish @ Entrance #12),2486.8,0.1,37.526306,126.923902,37.526178,126.923796,,,,
8241912,Ewha track CCW,223.9,-0.1,37.559967,126.944416,37.559985,126.944283,,,,
9022750,경의선공원,1148.5,0.0,37.544981,126.947042,37.544966,126.946968,,,,
7440088,[휴레] 남산업힐(약수터->버스정류장),1771.1,5.4,37.550442,126.998881,37.550763,126.991291,,,,
2143255,Namsan loop,7882.8,0.0,37.5411526,126.9977576,37.5413186,126.997844,,,,
7455930,[휴레] 남산TR Part 2,3088.0,0.6,37.55498,126.98401,37.550949,126.997625,,,,
5597616,The Scream (Namsan Tower),1143.7,-10.4,37.551131,126.990413,37.55219,126.982507,,,,
27160996,[TOF] 남산 순환로 업힐1km (by JK) ,1002.8,2.7,37.553473,126.997498,37.551503,126.997558,,,,
13523379,Dirt Track Lap,428.5,0.0,37.527843,127.020142,37.527841,127.020145,,,,
9536331,tree alley ,360.1,4.8,37.548822,126.992996,37.551268,126.990714,,,,
1592983,회현동1가 205 2 Climb,798.5,6.8,37.55860085,126.97684597,37.55535743,126.9814893,,,,
10491921,응봉공원 loop,1116.5,-0.0,37.554913,127.020845,37.554888,127.020887,,,,
9278345,gate to Samgakji,381.1,-0.4,37.534665,126.980418,37.53452,126.976119,,,,
26913830,건국에이스- K 코스,2105.5,0.0,37.542069,127.041654,37.542048,127.041666,,,,
27261839,잠달(성수대교 언덕훈련) 성수->한남방향(오르막시작 즈음 왼쪽 파란색 한강 이정표->정점 바닥 초록색매트),225.5,2.0,37.533964,127.032225,37.53458,127.029841,,,,
16391228,Forest to Seongsu,513.5,0.4,37.537899,127.041367,37.539824,127.035995,,,,
25680364,Über die Brücke,198.2,0.0,37.545833,127.03008,37.544677,127.031677,,,,
16391214,B2B,2190.8,-0.0,37.539947,127.035746,37.532757,127.058703,,,,
10892460,Bake the Snake,1142.0,-0.2,37.531877,127.023403,37.533368,127.034819,,,,
10499895,Foot Bridge,1615.5,0.1,37.541148,127.031591,37.543689,127.024437,,,,
23720866,응봉공원 내부 트랙,293.2,0.4,37.557379,127.022569,37.55733,127.022614,,,,
15016882,[HUMANRACE] 뚝섬TR 10K,10007.1,0.0,37.531012,127.065154,37.531161,127.064356,,,,
27728091,Bridge to Bridge Northside,811.3,0.0,37.553475,127.044198,37.550652,127.03591,,,,
26025421,어대트랙 5k By 대공원King,5029.7,0.1,37.5473,127.08426,37.547714,127.083992,,,,
11401341,[얼공]1k후문→분수대(북)_@ddamdo,1067.3,-0.5,37.551182,127.08666,37.549546,127.077856,,,,
26607022,끝난줄 알았는데 또있네 업힐 700m,710.4,1.1,37.548752,127.077413,37.548594,127.083778,,,,
16356899,광장동 구리 왕복 10Km,9634.8,0.0,37.540876,127.104415,37.540886,127.104422,,,,
22955618,TRB-강북 천호대교 잠실철교 구간 측정교,1606.0,0.4,37.543874,127.107878,37.5334,127.095572,,,,
23003952,올림픽대교(남단) -> 천호대교(남단),1517.3,0.0,37.530151,127.107904,37.541848,127.116207,,,,
24680117,어린이대공원한바퀴,2241.8,0.1,37.550639,127.083514,37.550009,127.084568,,,,
13585492,일감호,1077.8,-0.0,37.539333,127.076826,37.539252,127.076664,,,,
20204917,기원정사 오르막,305.8,11.5,37.554982,127.093454,37.556651,127.09586,,,,
25403563,진옥자전거캠프-아차산(생태공원구간)(JOBC),750.6,11.4,37.552663,127.099815,37.557838,127.103758,,,,
13127102,Goduck 6km,6042.9,-0.1,37.55136,127.173589,37.55136,127.17375,7931.0,680.0,21.0,_gedF{qegWONUJSDa@BYFUNs@Da@NWDc@AaAHo@PeA`@w@L]@oATu@ZuA^a@Fe@PkAd@uAZ_@AKGMHU@SAQGa@@c@O{@O]BQ?sCSaADGBWEeACYG}@Cg@Kk@SOIMGe@KyBuAcB{@QC_@CW?s@HSDo@RaAf@q@`@[L}@n@c@^s@`AY|Ac@tCiAhGk@jDSx@Kp@cAtDGl@Mh@c@jA_@rA[tAm@~Bg@|BQ\UtAk@bBq@~AaC~DeCdDkB|Ck@v@aBfCi@n@U`@KNb@QVQf@q@nAiBdAcBv@cAp@eA~D{FxA{C|@iCf@mB|BqJdAyD^eBl@cCt@wDfBsKHo@EIKGAEVaBJ_@f@aATYl@k@bBeAlAc@v@]|A[RAVDf@Nn@Xp@`@p@Nd@TlBVnAJd@QVJRBPCRD@ZPHRBl@Nn@IHDZTd@Af@ERFRBR?TC^@h@RJHF@XANFJ@XBFCLHHB^Ep@Od@ULCN\HBd@Uj@KpCcAjB]\KPBTOPGTAPDTERQRKh@KPGjAORMPGb@Ij@AXETDx@CFSRQTEVB@NWJ}@JSAYFGWFWNUTK
21202028,진옥자전거캠프-서울둘레길3구간(해맞이광장-상일쉼터)(JOBC),1615.2,-1.4,37.52858,127.15266,37.538757,127.16274,7367.0,1537.0,2.0,sx`dFcoagWs@i@WWc@i@w@?Y@[ESB]Ea@Qo@i@[I_@Bs@TYF_@I[MWWYcAUsC[kBCkAG_@e@g@eAiBi@aBO]u@m@u@u@G_@IgAIc@]s@a@m@o@eBc@s@UW}AsAYO}Ai@_@_@k@y@e@M[S]YSY[w@y@mAo@{AU[uA}@UY{@Da@TeAT[Nc@A
19482363,진옥자전거캠프- 서울둘레길3구간-일자산구간해맞이광장(JOBC),1323.1,1.2,37.537685,127.16294,37.530045,127.15333,9303.0,2368.0,1.0,oqbdFkocgWRVrA^VVp@`BRV`@t@\|@BTPV`@Pf@HbAjAXVd@Rx@JXLf@^RFt@j@NVJZ@\P`@t@dAZXLTNjA@nATd@fArATNPXRTBf@Ln@LVh@l@L`@v@h@DnA`@nB@lAHlAJj@R`@^RZF`@?xAKVNb@@ZLVN
21201994,진옥자전거캠프-서울둘레길3구간(상일쉼터-해맞이광장왕복)(JOBC),3902.6,-0.0,37.540836,127.16454,37.54099,127.16463,3875.0,735.0,0.0,eecdFkycgW\TXJZRvBdB`A`@\VXb@PZRRVNZHjAObAc@n@KXFn@d@p@`@TTh@t@`@|@RXx@vBTZfAx@`ArAn@d@v@VXBRHn@b@n@ZRRv@xAPb@p@z@Nd@Tf@Jp@LrAr@bAz@~@P^Jf@b@bAT\bAlAHXd@zCNtBFhBP^TXVN\Cz@WZC^HtAd@p@LX?~@Kd@PhA|AXX|@r@JDSUk@[s@i@WWc@i@w@?Y@[ESB]Ea@Qo@i@[I_@Bs@TYF_@I[MWWYcAUsC[kBCkAG_@e@g@eAiBi@aBO]u@m@u@u@G_@IgAIc@]s@a@m@o@eBc@s@UW}AsAYO}Ai@_@_@k@y@e@M[S]YSY[w@y@mAo@{AU[uA}@UY{@Da@TeAT[Nc@Ac@O]Se@_Ae@[u@]WQk@k@g@m@iAo@eA_A
19357942,일자산공원 (중간트랙 1바퀴 ccw),484.6,0.5,37.532652,127.150676,37.532598,127.150792,2468.0,156.0,2.0,aradFubagWJRVRb@?`@JJANEROJW?QE[@[KQKGOBKAm@QQKOU[o@GEQBYAYIWOWBOFMXEh@G`@BP`@H|@Nd@PZDLP
19467230,진옥자전거캠프- 서울둘레길3구간-일자산간해맞광장계단(JOBC),231.5,12.9,37.52674,127.150795,37.528362,127.15236,2910.0,1032.0,3.0,am`dFmcagWc@_@[SwAuAM[SUKQiAg@We@MIOS
19698662,원터근린공원 한바퀴,539.3,0.0,37.552388,127.150505,37.552383,127.150493,1282.0,58.0,3.0,kmedFsaagWAMS_@GYQQMGGa@Y_@UMK?MBKF]HIHOTq@Xq@j@YLo@BIB?h@BDVFVBj@JjA@JDJBh@?d@Lh@@J?j@]RW@K
22506335,진옥자전거캠프-서울둘레길(고덕역낙타등코스)(JOBC),366.2,5.6,37.554826,127.158492,37.552285,127.159278,2171.0,1282.0,0.0,s|edFqsbgWRsAh@}@XYb@m@PKNGj@i@PIZHX@bABj@ERBZVv@lAPP
19460470,진옥자전거캠프- 서울둘레길3구간-일자산산2쉼터(JOBC),1618.2,4.1,37.542126,127.167915,37.53276,127.15706,2357.0,1408.0,0.0,gmcdFmndgWOXGVC\HJ@h@DREN?TOHADG@F\Dj@Jj@PP\r@`@f@ZFFV@\JLLDXd@RLV~@r@pAj@BZTt@t@p@v@~@f@JV^NJLHb@RTl@H`A?ZMVEvBi@Xf@RVrA^VVp@`BRV`@t@\|@BTPV`@Pf@HbAjAXVd@Rx@JXLf@^RFt@j@NVJZ@\P`@t@dAZXLTNjA@nATd@fArATNPX
22667788,진옥자전거캠프-암사선사초등학교-언덕구간(JOBC),2111.1,0.9,37.556197,127.12964,37.559135,127.143481,583.0,103.0,1.0,eefdFg_}fWa@O_B]SCy@UaA]_AWqC{@uA]kA_@qBaAwA}@uAgAaBiA{BaA}A_@qFc@_BaA]]aAkBCM?UIa@WaACg@@YJk@P_@l@{@lDiEzDqFfAgBdAiBrAkCbByDxBkEzBaFv@oAf@o@\_@
24496576,아라뱃길 진입,2687.4,-0.1,37.592053,126.783848,37.575531,126.761699,5197.0,1336.0,8.0,iemdF_nydWr@l@RXnAbBn@dA`C~C^n@R`@TTrAhB^d@rAnB`@b@b@t@b@d@d@\Rh@`@r@z@hArCpEjA`BXZ|A`Cv@`AZj@bAvApBnCl@~@lCtDh@x@b@x@xAtAfA`BNLj@n@r@jAPl@Xd@t@fAb@t@dApAv@pAlB`CdAjBn@~@LVp@~@vAxA`CnDvAjB`@r@lBzCzAvC~AvCdBfE
37056512,근린공원-약사사입구,475.9,12.7,37.58277,126.811966,37.582376,126.807606,1198.0,282.0,1.0,gkkdFw}~dWa@h@U~@Er@[h@O\@\NRALc@d@AFF\?`@F`@Mn@Cd@HVHJDLAh@Z\?HJZRDNFHHBRL\PRb@jAXP
37056515,강서둘레길 1-1,750.5,-0.6,37.577713,126.807523,37.582323,126.811073,665.0,150.0,0.0,ukjdF_b~dW[cCOSCCOBWRMDOB[IMO]QC@MGY[GMAk@MOc@Om@?QSYQOQEUEIGBIAU@KDEFc@Ki@G[_@EBGAOWWCQIMCs@DIAGIyA[K[KB?BSPW@QCIk@EU@o@Tk@?MUo@
32806179,개화산 언덕 순환,2287.0,-0.1,37.576533,126.808089,37.57647,126.807921,54.0,21.0,0.0,idjdFoe~dWGPWT[AMHCFg@^u@Pi@\I?UG_@Ma@UYCY@UGYLUDi@j@G@m@Gg@DIC_@W{@e@[EWBk@RI?SHW@SF]_@SOOGKAK?_@LOFi@@QBSNADSTs@TCR@`@EZ?XBTWb@EPQVTj@@dAOJO\WlAc@fA_@^UJIAi@KGEmBQg@M_@e@CI@C`@CZQ\C`@N`A`At@RZ?FKDa@BCAOF[LYFYR_@CQRi@Im@BOCECYFQ\e@Pm@?[@UJ_@~@s@BKJOr@K|@_@r@RRPPD`De@VD^Vb@`@TBh@Cd@JJ?`@a@TMRQTATDz@@ZLx@b@ZBj@c@`@Kx@[ZQj@WNIDOG\OX
32806213,개화산 언덕,967.5,7.1,37.576473,126.808153,37.582933,126.804621,437.0,91.0,2.0,}cjdF}e~dWKLGPWT[AMHCFg@^u@Pi@\I?UG_@Ma@UYCY@UGYLUDi@j@G@m@Gg@DIC_@W{@e@[EWBk@RI?SHW@SF]_@SOOGKAK?_@LOFi@@UDOLADSTs@TCR@`@EZ?XBTWb@EPQVTj@@dAOJO\WlAc@fAYV
21612765,서울식물원(CW#02),1521.0,0.2,37.567504,126.832051,37.567485,126.832064,13244.0,1434.0,9.0,{khdFi{beWjAlI?FGL_@G][IWMQCYYOw@k@UGu@CIEW?_@EW?WGc@Cq@KWAME[AGEuAIMCg@CECy@EUGW?KCo@AIEiAIKEsAIEID]?m@CgA@}@PqBH_@^m@h@m@`@URGn@@LDn@\LJl@HDDL?VHLHf@NHJf@Vd@b@JL^TZFHDXH\DnAZRLFDTHDFpBlAb@ZLR
19776115,Courtyard Seoul Botanic Park -> Magok Batminton Court,601.1,-0.1,37.567152,126.830128,37.572218,126.831796,112501.0,4360.0,10.0,uihdFgobeWoAwBW[USa@SUG{@O_Ho@eF]mBSyBOSG
20824817,서울식물원(CCW#01),2312.0,0.1,37.572131,126.833254,37.572125,126.833254,28542.0,2078.0,37.0,yhidFybceWK`CAdCBPJJbA@NFH?NDx@@FDX@HDt@?TDj@DFD^HH?FBX@FJFC^FX?LDnAHT?D@HALBd@BLBVBTDR?XFX@BD\HVN^\j@|@b@v@l@n@HPV^PJR?f@SL[^{ALUZW\OLADEH?n@KdBB^CVIDIFg@d@wBFq@BcA]wBMiAKSMG]FGFE?WJ[?SHI?IDO?CEW?EAQM{@w@GACEOAIFWZGJUPUXU^C?SVc@`@MXc@f@IVY\KFQGg@c@aAi@_@]IAe@Yu@UaAOk@Oc@U{@u@UKMM[Sw@YiASYSq@_@e@CY@WHUN[\O^KHCJC@Mf@A\
15048026,염강나들목 to 방화대교 (4.5km) [gjpark],4545.6,-0.0,37.562523,126.864854,37.584329,126.821798,8420.0,2653.0,5.0,wlgdFihieWm@rAu@fBi@|@wBvEy@|AK\S^K^mE~HO\UXcA~Bm@|A[d@Yj@W\e@|@u@vBm@bAQf@{BjESj@g@~@Yr@U^_BpDw@pAgA~Ba@j@Yf@]x@M`@kAdC{@~A}@nBoA`C_@x@aCxESd@Sp@iDxG[f@mAnCw@rAaA`C}BxEi@|@_ApBg@~@q@vAg@lAk@jA_BhE[fAq@pBQv@g@xA[xA{BxIe@xAy@xCe@`Bm@`Cm@jBe@`Bu@vDmAfEs@`DYv@]jA[vAy@jDi@lB_@hAI`@q@|AeAjDmBnFuAdEa@xAqAxCIF{@T
5652484,Gayang 10k back,4994.1,0.0,37.586049,126.817402,37.56246,126.8648,3694.0,1611.0,3.0,w_ldFw_`eWABHUR]Vi@`@eALu@Cq@?u@b@cBNa@l@w@N]f@sBFq@D{ATg@t@_@rAc@Va@fAoC`BgF`DiJzCiKrCeLhF}RxEcQfAyDVs@hAgF`AaD~@qC~AiEzAiDxAyCxDuHpEiJpCaGdC_FpMwWv@cB`EmIfBwDnAcC^}@~EsJTk@z@}A^_AdAuBlDuHj@eArBkEl@gAvA}CtBiE
11144927,한강안쪽 500m 직선도로,518.2,0.4,37.573588,126.843904,37.570765,126.848515,14869.0,781.0,1.0,{qidFkeeeW^k@N_@j@s@Xe@f@aBT[\m@Pk@Nm@LWf@m@fBaElAcBTk@|@uA
18168336,방화근린공원0.76km,768.5,0.0,37.581074,126.814099,37.581077,126.814085,6793.0,216.0,5.0,u`kdFak_eW?iAEYRs@@IAEc@EUIe@Gg@?_@J]r@Gb@K\WzAQr@Wp@Gd@Mf@Kz@Qb@SbAEVVT^T~@TF?BCNg@Xk@PqAhCcFPg@?W
20824793,서울식물원 습지원(CCW#01),713.0,-0.3,37.577942,126.834803,37.572694,126.833318,25935.0,3805.0,3.0,cmjdFolceWJGRCd@WP@VJPHRT^h@JFR`@j@p@RFr@U`@EVLl@dAZXVDBAR?`@KL?BBB?FFd@~@TVJBH?NGh@w@TQP?`@Zv@x@NJPFFF`@DH?PEf@CPGNILML[
11338494,"Gayang Dae Gyo south to north (가양대교, 남>북)",800.9,-1.1,37.567105,126.859624,37.573266,126.864233,9865.0,7782.0,5.0,kihdFsgheWaBiA_DmBoGkEgG{DaDaCwB}Ai@[qB}A
15847462,Magok Naru Park(M Valley 6&7 Apt.) 1km,1018.2,0.1,37.56589,126.821583,37.565203,126.821889,16378.0,106.0,4.0,yahdF{y`eW_AiDQe@QOIAUBMHKNCREtA?x@@NHRTVv@HnAEb@IJEh@[PM`@a@hAaATWPAp@s@ZOl@q@f@c@bAe@LEZADCE_@Mg@KYGIGCIBKp@ITu@zAKHe@r@u@v@m@V_@d@i@Pi@h@
2982725,상암동 436 2 Climb,872.6,7.9,37.575994,126.866877,37.576972,126.875483,10144.0,1837.0,9.0,}`jdF}tieWASQYKu@I]]u@Ki@U{@Si@SeAGi@Mm@ImAAy@ESAi@Iy@@e@C_@EuDOcACsBEg@@g@?w@CMIkAE]I]Co@AkAG{@B_@Pg@l@s@LKDADF?LOh@
24352367,메타세쿼이아길 편도 서>동,839.7,0.6,37.567329,126.879679,37.562936,126.887401,74098.0,12421.0,9.0,wjhdF}dleW?SJWXc@h@mAf@wAlCuF`@eAf@w@r@yAr@qAz@mB|@{ANg@v@aBDUl@}@v@gBR[H[p@mAXq@\k@
14412611,Around Noeul and Haneul Park,5891.8,-0.0,37.576018,126.880205,37.575966,126.880337,26862.0,3238.0,33.0,aajdFghleWKJ_@Tg@v@UNq@n@eBzBSb@]rAU`@APGLuAhBa@j@OZIJW~@ONELCT?\Mj@B`@Er@J|@AVTjDR`AR^Pr@ZdAPXd@bBBVHZAVFh@Hf@HXRrAHVBh@Jd@Hn@BhARlEJt@\|AJRVXHPXP^d@\p@^d@\P\`@^Vv@`@RDXBPINMJM@IHMd@e@HYV[P[^g@FQNSJ]\c@^}@Zc@hAeCNg@PUN[b@o@DSj@cAVs@h@u@\cAXa@`CiFXa@P[Ne@V_@^eA\w@RUZkAR[Vq@|@wAHUn@aAHUhA_BXs@@c@Ts@NQJg@FMd@e@Ja@N]X_@HSF[RSVOJQJ[|@_BPo@Vi@^e@P]Jc@h@sAV[Nc@b@q@DOT]FWVc@v@kAHYRe@LOV{@N]TYVq@b@e@Lu@j@gARo@LOXm@LILUZ]`@s@FW`@m@DWJQXu@Lw@rC}EJs@@QEq@K[Ye@OO{@m@SSKSUUm@[_Bi@GE_@g@WQi@m@g@c@MQICkAwAYQa@_@]i@MKMWUWUKQ?QFWNWJc@VON[Tq@Zo@f@iA`@]Vm@\_@Zg@R_Af@a@^}@f@SNWHMJQXM\QXSd@c@l@i@bAUPe@n@c@`ASv@Iv@M`@EVM\_@h@k@fByAjBcAdBo@d@o@Xq@LMLQZOJ[^UREHAVDx@CXk@n@IXSf@}@x@_@l@UVELc@f@g@fAi@l@KVONKRQP]l@WZ
10831175,Wooden Stairs near Nanji ,155.6,24.4,37.572465,126.871915,37.573208,126.872652,1718.0,510.0,5.0,{jidFmtjeWKYMJIGAWEEM@?MQ@E[S@ASCGG?IBEA?QEKKAIEBAFD
24094687,Dal ponte al campo calcio,1149.7,-0.9,37.566467,126.891518,37.573963,126.883433,70503.0,14066.0,5.0,kehdF}nneWk@PqCdBcAh@}CvBcAh@qA|@gAf@q@h@MPy@~ASZ]v@k@r@KV_@d@CRIN[`@DGG@QROl@K`BId@s@`BQZe@l@g@j@W`@Wl@W^i@`@kA`@a@Bm@p@q@~@a@v@
14201892,상암구름다리,224.8,5.9,37.56052,126.889403,37.560929,126.891083,19528.0,8013.0,16.0,e`gdFwaneWEeAFm@x@eB@UCc@Ug@a@UOAk@DWA
25604141,하늘공원+노을공원 둘레 1바퀴,5881.4,0.0,37.566041,126.891248,37.566031,126.8912,31117.0,5157.0,19.0,wbhdFgmneWm@_@YKa@JWBu@VkA`Ac@P}BpAwA~@o@\yA~@c@\_@R]Xc@b@KXUVg@~@CN]~@UFq@j@Sl@UZU~@Q|AKT]f@Wh@[|@[VYh@s@z@m@lAyAdAq@Xc@JQPOXY^i@l@ARPb@CXQn@MLaAjAe@bAa@ZkAxBSf@MNs@jAa@\oAfBQN[t@w@t@w@d@WTKVu@x@SJ[n@IFCJMRAL[l@AJIPMDOZ_@nAMXe@v@GZ]l@GV?LCDIj@IVAv@Or@@TFRBp@H`@HJVr@L|@HNPj@p@rANl@Rb@J`A\lAHh@@n@LRGf@Rz@Bz@Jh@BtBCPF~@L`ABv@Jf@XfAl@p@HNJFT^RJHRXVd@`Br@h@Xb@PH\n@I@KICILGXB\HL@TENYH[Tg@n@}@LWPc@Zm@tA}BXYTa@`@aAXe@Xq@l@_A^mAl@sARc@\y@R[Tm@RULYPg@l@gAd@oA\k@d@eA\m@Na@Jc@\a@~@eBPo@f@cA`@eAh@y@Rm@R]JIDIn@y@d@uAVe@Le@l@_AL[XWN]R]LIV{@ZsAJS\QL]AUB_@z@uAj@yAX[?YBKTi@TUV]BKNOf@iAd@k@Va@TMJa@NORa@Jg@Z[V_@NYBCPWHQFc@v@oABILOPo@^i@h@sAb@y@J]d@iAFa@L_@j@qAZSfA_CJg@Rs@Cc@CQ[o@ICa@UgAaAyBiAQEe@a@]_@IMm@k@o@_A_@c@YOKQUSa@g@o@i@
14923511,Seoul 10ker - Straight 2,2242.3,0.0,37.574734,126.867455,37.562817,126.887733,68642.0,10139.0,5.0,ayidFqxieWZYT_@`AsBfAmB`@k@J]j@kAl@uA`@g@p@cBv@uA\}@b@q@Ro@x@wA\{@\q@Pi@~@_Bv@kBb@q@\y@LQ\aAdAsBH]Vk@p@aAVw@Ta@ZcAj@eA\_@l@aAJWlAiC\k@Rg@J_@V]Xi@Nk@Ta@PUL]T]bAgBZy@Ja@f@_ALQd@qAx@}@Nc@Hm@FOJQr@{@Te@LO`@w@j@wA^w@d@mAVc@JY^o@Na@x@cBf@{@j@{Aj@_AN_@
13527829,Eungam river,1085.7,-0.2,37.594133,126.915131,37.585007,126.911765,28927.0,2934.0,7.0,irmdFqbseWbBTp@@r@Pt@Jt@NZBZCr@h@D@h@D^?d@RPDnC\l@NX?b@Bf@JX@LF`AL\Hp@FLFx@?\D^J^DjDl@b@Tl@H~@XPL^Ph@d@PFRPTZn@r@XZTLV`@DFPFLR
19053442,사천교~홍제천 합수부 왕복(5.0km),5011.5,-0.1,37.568653,126.917275,37.568298,126.916865,7611.0,1381.0,12.0,ashdF}oseWFh@F?DBLJ@HJJp@RTVPLLPj@d@VZr@r@HLPJhAjCXzAz@~CNxANd@@P^vAJr@Tx@Hh@Rv@^v@DrANfALf@Fj@ZlA@fADZL`@Hj@H\TtBPh@Fx@Pr@B\Hd@?RAF@HRr@j@lAFRLhAZdBT`CZjBRp@Jx@RnA`@bBFn@L~@N\TjAJtAh@pBVnAJVLRBXLb@?h@`AvB?HLV^\\n@Pn@B\HZJt@R\`@jAFb@Rl@TlA^v@Rl@b@x@f@lBVl@TdAn@zBp@~Cj@z@f@h@D@?G_@CICa@a@GKCOOS[_BEg@Ka@Eo@M]Gi@q@}AYgAWa@e@_BKm@g@iAI[Yo@Oo@IQY}@Io@c@gBe@WUm@W]SaAM]IIEMIa@CeAGg@Qy@g@qAg@gBE_@Ae@EW[iAYoBSu@Ac@@QSk@KeAKQE?a@}Ck@gCGq@O_@I_@MgAIWEy@?cAOy@KYGWKUWcAKSGYAWUi@As@UmACk@Os@KWEWK[Mw@k@oBa@iBEIAIUeABOCWUkAK]Ei@UkAGq@IYEc@WeA_@eBK]OaAUYCUSk@o@w@Si@_@e@[q@W[s@g@i@i@SM
6953204,Ingwansan from south ; road to summit,1553.2,17.0,37.573735,126.964136,37.584903,126.957879,12627.0,5418.0,32.0,yridFyt|eWEFQN}@f@MF?BGBkCVeA?[Bc@FMFMRQLiAVUHSLSDSBw@QY@y@N[RWVCJUj@QXIDQPYj@IHY@BDED?FIDOPKV_@n@{@Z]Ro@zAu@bAUR{@d@SRS`@MPK@e@NUt@ERMPEPIJCr@YjA?d@CFGDOBCCAGOIO@[LS@IH_@PCHUN]Ha@Fo@`@K@SCWK]CQGCC?CADCC?DMEGBB?[BU_@OBEJSDCBC?KIK?MFq@YUCSII?SEO@ULOAm@L
20051823,stairs up Ansan,383.1,21.2,37.57489,126.943744,37.576816,126.946886,3127.0,1158.0,10.0,azidFkuxeWSM_@EE?CEE?a@_@EAGEQWE[@OJS@IsCsFEAGMCQMUcAgAEMEmA
24264946,TRB - 인왕산 편의점 대공,482.7,20.4,37.57832,126.961895,37.580821,126.958076,16590.0,6903.0,11.0,oojdFyf|eW?HIFINIR?JSf@eAh@ODCAGDK\ETGNG^c@^SJMJEJMHUBe@TORYn@EDAXKBIHIBGLOFALCB@TETGHI^IRIj@CBEP@VGT@X
18922738,[Tom's] Inwangsan Stairs to Buam,1605.0,-11.8,37.584812,126.958006,37.591794,126.966419,11171.0,5219.0,6.0,axkdFon{eWb@G@DCDAHED_@DCBADMFXUDBH?BARCHKACMIK@i@IEDQDe@IU@GGSCOQ[QSS]g@_@]IQAe@M[DURm@?QCKCk@EIBCOEQg@Km@EmAYaAGk@W{@ADs@cB?SSUa@]g@Bi@IOo@M_@Iq@KOcAy@o@Qo@a@QWYk@MMUOa@I?OF{@FCFBJHBAHUAYWGAARDQIQCSHiAp@SFu@A[a@QKQCMGg@s@G_@MYQk@AIDYO}@?{@IWDDFXDj@Lt@?ZCFKEY]]u@USCAe@FI?QGKAMG
2707595,부암동 359 10 Climb,538.0,7.7,37.590862,126.965584,37.587062,126.963881,6738.0,2454.0,5.0,{}ldF{}|eWCh@DTRd@LNNHbBr@P?TOZMz@a@LAL@NDlAn@LDrAHVFf@Tp@j@j@P^Bd@?v@JDL@NGHWD
21694739,Inwangsan-ro Descent,748.8,-8.9,37.579834,126.962338,37.574966,126.967393,1884.0,1000.0,3.0,}xjdFqi|eWVBXAXId@YLMVc@n@_BX[VQf@Wv@[xAOZKNMZe@xA}C^m@LOb@]XMh@_@|Aa@PMb@gBdAkDFa@
6487491,Segment,1498.2,12.3,37.580414,126.934214,37.590623,126.927925,295.0,152.0,3.0,q|jdFyyveWVb@\^DP_@|@ONGXOXORQNOJYJQPQXSj@Wj@o@~@i@^IDO@aAd@Yb@e@pAeAvAYTSB_@MEEEQMOU]MM[SA@?CIGABCGICU?m@Uy@MUQSIKAI@ILOp@UZM`@c@f@GTEDu@`@g@b@]JOH]^IBGNYVKDY@_@Ra@VG?SHc@ZMDk@Vi@PK@k@p@[d@KJKXIJUFQ@g@X]Jw@Lm@GYQg@KM?OIKBKFu@RKASGU@SA
5948918,Segment,569.3,10.5,37.566275,126.958324,37.569114,126.954054,914.0,265.0,0.0,edhdFop{eWCABDENIBEJDD@JKXArAADWTa@BMN?DJF@FG\AZCFAHMVKH@POVER@FEVEBELs@x@c@Jo@HIHc@RCHq@P[d@?FQLOHg@d@A|@GPQRK`@WP
6487490,Segment,441.8,10.6,37.580132,126.941966,37.576553,126.942478,509.0,237.0,5.0,yzjdFgjxeWJEJP\RNNb@RXRTDn@BTPRHFA?ETYVMPUXFVSDCbAEp@]h@ANGHKZK^WHERATMNEJMPE
7128835,"Hongje-dong, Nokbeon-dong & Eungam 2(i)-dong",1764.1,2.5,37.59431,126.937386,37.587894,126.928695,346.0,174.0,5.0,msmdFsmweWKPkAbAc@PaALWVYNo@|@YRCDAn@EZi@h@_A`@_@FWCSJP\VbA@b@Of@APXlBLjANXRt@N`@JLh@XBF@`@PLNPPn@BVBFzAfARr@LXHZf@b@HVPV\Nb@n@Zn@JJZFVNNDRVNBHDZb@PPT`@PNVXRLTFv@R\X^FHDr@x@TDVTb@TN@b@MPDZTj@D^?`@FJAVSv@UJAJBBD`@r@HFp@Ft@C`@M^_@r@MLG^k@^c@NWZQ
19165318,경복궁_시계방향[2.6km],2641.5,-0.0,37.576301,126.979405,37.576423,126.97941,27889.0,5453.0,81.0,{bjdFgt_fWXNh@j@PVFLFn@Aj@HvC?dADl@?jAIjAMlD@hCIb@c@j@iAJyAFWF]L_ALaBB]Da@JoAD[EY@UGE?e@HoBJs@JsAFe@Fi@AS@k@GUDGAWUG?ODWRG@u@AsAJ[CKGIJG?s@KQUOEa@CEEG]?OCQGW?OEi@ASMq@AYIc@Cc@@YIQ@YDWIe@AQJK@GWwADa@Eg@D]JWLkAAi@Tq@E[Bc@Fg@HS@u@Jm@R[JKFUj@g@l@QTE\Q`ACRD~@?h@GZ?XFL?f@D\Rn@Fl@P^@RHVDdA\p@HjAXPE`@Dh@Id@?^BX?RLd@Bl@IbA@f@FNId@DRGf@H
6279973,Hyewhamun to Dongdaemun,2073.1,-1.3,37.587246,127.004255,37.572114,127.009631,5527.0,3674.0,12.0,ggldFqodfWJIPYP_@Ts@j@_DHa@NUBa@JUz@}@TITF|@Qd@w@TMj@?p@RXAl@Mx@e@ZK`@Kh@D~@_@V@b@J|AbA^Dl@GVI\YLUBQPYXW^s@p@u@H_@PUz@i@^c@TO@LCPBPJNf@LRBSCFBj@BXFNL^W@JEJ@Dl@l@XLz@HVIp@DXG^OPOVO`@AbA@RGl@]`@IHEHMEJ@E@HVFn@DnAXrA?d@C|@m@VG@QBKX[TM\GV?\Hh@Vf@JZCv@[`@?\D^CpAFTQ^y@v@w@VO
2413157,청와대로 동행 Cheongwadae-ro Eastbound,798.1,-0.8,37.5833459,126.9739714,37.580988,126.9801445,66448.0,12726.0,7.0,{nkdFir~eWWMSyAQaBQiA?uAGiB@}BFuARaCPoAHwAF_@?g@Di@Nk@~@u@b@Y^Kn@K~@Al@Bx@OBGHCrARXJ
16697641,Chilly Hamnida,1059.4,0.3,37.569475,127.00456,37.56822,126.992816,91345.0,39114.0,13.0,exhdFoqdfWEp@Kl@Or@Ap@\|@\~APlCFZHNDX?XGl@Jp@Kp@Ml@Bn@?p@E`BIt@Br@P`B@n@Ht@XxAK|@?H\r@Jr@@l@Dl@Pp@Lx@P`B?\`@xBHt@DdCTtB?f@
18038011,Following the wall,902.5,7.9,37.572636,127.008633,37.580394,127.008491,4975.0,3346.0,6.0,}kidF}jefWeABOA_@K{@IQ?}AXc@Ke@Cc@KSAYNQ?SBQJc@LQF[\[H{@Aa@C{@OsAOw@?UFw@b@e@CU@e@HcAn@YJc@BqAESCc@Qq@e@yAg@m@MO?
1980921,서린동 82 4 Climb,816.6,5.0,37.5684755668394,126.98589750577416,37.56902969445807,126.97867280815446,28045.0,11256.0,5.0,}qhdFy|`fWHVD`AGtBERU^E~@Ox@Ix@AZRt@?z@c@hAk@jBERCj@Bl@CfACNS`AAX@XTv@BV?RCxAIPCVKRTt@Qb@CVCtA@z@DADWPkBJM
9587036,바람마당~  성북천분수광장,1153.1,1.6,37.589871,127.017508,37.588076,127.007102,23278.0,2869.0,5.0,uwldFkbgfW]lAOLSFg@p@U`@SNKTY^Qd@IJG`@Uv@Gh@YlAC`@Q`AEd@@d@EnA\zAFj@HLPJDFHp@LRPLFNJl@Vj@VXb@Vf@`@LXV\b@T`@v@RRVb@LLb@h@b@b@\~@NVd@bAZl@`@l@BD?PFNj@v@HDJVF\@p@CPI`@WVUt@
18874939,Being watched,1394.1,8.8,37.592452,126.998263,37.593739,126.986021,5228.0,2941.0,4.0,ygmdFcjcfWDFVv@RbA@d@EdA@PZj@D`@?PUbBGr@@f@P^b@\LDd@Z^d@Xh@Ld@BTCTUd@Uv@e@n@IRKr@KxAELEb@Cb@Lp@Z^\PV\N\BRCb@Uz@?R@jAFh@DLAd@G`@BTd@jA?NCPMRiA~@o@x@IPMl@a@xAILk@l@k@d@O@[CY@MEGMI@KG@RHPAl@GTQPQHIRQHO@KF?^JB?NHFOR
10201836,감사원 업힐 - 감사원,372.2,8.7,37.586836,126.981657,37.586539,126.984877,1027.0,649.0,3.0,udldFib`fWSWYe@Sw@F_@_@e@MYMo@GKEQGm@HWX[JGLCH?XDNFFADBLCFKHU@[IS?KKw@DIDYh@u@DM
15266531,Cheonggae Plaza to Cheonggae 3-ga,1226.4,-3.8,37.569107,126.979088,37.568439,126.992393,54410.0,27451.0,4.0,{uhdFgr_fW@i@MQ@SLU?[R_AFcA?UBYBe@Iq@DYC{@Hc@Aa@H_C@MDAFQh@q@My@Ek@JoA@q@F}@f@uCH}ALo@NmAJwA@m@HkA?[BQ^o@FUEgASoAMwBc@uCYkGGsCGs@EO
9831608,청계램프 - 제기1교,1501.8,-0.2,37.572521,127.035657,37.586175,127.036096,14070.0,1803.0,5.0,gkidFysjfWiBvCD^FJGRMNa@Tm@FMD]@GAECM?CE@S[@y@RCBG@OAKI_@Da@d@M?YKKBMCK@KDO?IBo@ZM?c@C[D]?CB?FE@UA@DUSIUGIKGWFkA@WNMIQ@q@JIIGC[B_@Ua@@WUICSAw@Fe@ISAeAU}@COGSAOEm@UIAWDGCe@ESIKDEAOIUEc@AUOGAm@As@ISOk@A_@BMCUMSCq@@KQQEm@CUHQBG?KGEBW?i@QCDG@WIuBG_Ba@_@Sg@Oa@Ss@U_@I]O
12659994,정릉천 1km TT,1018.3,-0.3,37.5909,127.038935,37.582211,127.035648,18234.0,1684.0,14.0,c~ldFihkfWv@TlBl@v@Td@Jd@RvCbAjAj@dA\`@^b@DjBt@d@XjAb@\\hAj@fAd@nBl@d@Jd@BfADbEb@jBDh@A^Jb@F
15923375,Bugaksan-ro climb,1217.9,6.2,37.592481,127.036181,37.594682,127.026251,683.0,117.0,5.0,_hmdFcwjfWE~@At@ZjA`@p@~@x@Xl@PVl@j@NTH`@d@lAFx@F\@XMRAZJx@FlACZ@x@KVa@v@ELEVZtAD^A\E\@b@N`ASVQFOTy@Zi@D_@?SFOTa@bASPcAZ]h@G\LtAAVE^ITQPcBz@cARk@Fi@VORITULK?
17335762,The way up,919.7,3.8,37.586618,127.02759,37.592222,127.026506,205.0,64.0,1.0,icldFmaifWS?WEUM[c@Yo@MQe@[QEOCu@?e@Hi@Zk@d@ONKRE`@@XCVg@z@It@LPL\D\?b@Q~@Yv@aApAu@p@u@^k@JW@k@GUIWQkCqCw@q@q@w@_Aw@
15101592,[HUMANRACE] University of seoul_Campus_Right,1410.8,0.0,37.583218,127.05546,37.583228,127.055458,16198.0,316.0,13.0,ankdFsonfW?B^_@f@Sb@IPm@Cm@Bm@IsCJs@Fm@Aq@K_@e@UIo@AuCFmA@q@Ks@As@Bo@@_BKSiALSFe@MmAIyBDa@JBxACPi@nACn@Kh@G~ABbDBn@CdBFp@LNX@b@Ob@Id@DX^\bBt@|B^Z~@fB
5268007,안암교-보문제1교,188.4,-1.1,37.582161,127.02252,37.580663,127.023343,87305.0,6017.0,4.0,ogkdFwahfWPEJQHIV?LKf@M^SBM^Eb@WNCRMN?XU
18606119,고려대 녹지 운동장 1LAP,373.0,-0.2,37.591606,127.025734,37.59153,127.025696,17451.0,280.0,2.0,obmdFyuhfWUBWPS`@?TJf@p@~@VNf@t@d@^ZKf@o@Fc@I]KQi@a@UUU_@s@k@
12869901,[HUMANRACE] 중랑TR 5K Course,5029.9,0.0,37.593188,127.069716,37.593081,127.069753,3483.0,2218.0,15.0,klmdFuhqfWiANoC|@sCr@c@PoCn@wCRoBWgAi@eEsC_CkB_@]Wc@[_@_@]gAs@a@O_Am@eAi@kAUg@Ge@Og@Eg@?g@JiAHg@Hg@ByC`@iADqC`@qBHgANaEPe@Dc@Lg@HuCHc@DcEDg@BsBAiBJe@Le@DmAGi@IwBCi@CoB?e@Ie@@iAGg@@kAC_BHXBhACnB?rBFd@HvB@d@CvCCvC@b@Bf@Ef@ApBExDAd@EfACrBIb@GfA[jAAxCOrBQxC]lAIfGw@rBOd@AfAFb@Nf@Ff@NfB|@`An@b@R`Ap@r@n@X`@^^~@n@~AtA|@p@`Aj@dAd@b@Ld@Jd@FjAFb@AnAOb@IfA]jJiClAU
4979168,Segment,462.1,10.8,37.578845,127.062725,37.581934,127.064046,98.0,26.0,2.0,wrjdF_}ofWO@[RW?g@Z]J[NGAIKG_@?e@IGQ?y@FAG]FW@KNY?c@WQSc@IqAe@IGIWCU?OCCK@EAEOE]?MOa@?O
13611564,Winding path down the hill,405.4,-4.0,37.588762,127.04709,37.591416,127.046297,301.0,34.0,3.0,wpldFi{lfWm@CWEUQS[WQ]Em@BWJQ@INKZWjAUj@Gv@W|@SVIBGAk@O[QWGIKUQIM
11346975,용마산6시방향 정상까지 달리기!! 난이도 중,1281.5,16.9,37.562256,127.095687,37.570878,127.095638,723.0,207.0,1.0,akgdF_kvfWCZWh@BLAtAIRIP@LIFCLBDCNGJIDMf@GDw@hBMDiADi@Ci@@e@Ic@AEBc@EOe@UCa@PHRK`@[VIAMJI\Ej@Db@K\e@IM?ECBO?GHQIUKKM[Eo@EO]_@Ya@_@SyAMc@FkA?SBUAUGaAe@_@Yk@I{Ae@IM]SUUcAa@[]e@U[Ga@S]YeASc@CUOe@@
19818844,진옥자전거캠프-용마산(용마폭포삼거리-용마봉)(JOBC),332.3,31.1,37.568499,127.094276,37.570938,127.095806,2164.0,771.0,3.0,arhdFebvfWFIAIUa@CCE@EAQMEKE?MQOEKM[O[_@WQOAIGC@MCWS[IKQIG_@EQDK?WKKAE@GAMEOMk@O
19367802,진옥자전거캠프- 쉼터 - 용마산정상(JOBC),752.9,17.8,37.56518,127.09374,37.571198,127.095665,867.0,258.0,0.0,k}gdF{~ufWy@@kAYs@WMAkAEc@DSHQBq@?MDm@G]MSO]Oy@Yg@IKGIKa@Me@c@gAe@W[]OGK]Mk@MMQOKWCUOs@IQ?IGYGg@Gk@m@GL?TJT
12524981,깔딱계단,280.0,29.6,37.578852,127.103203,37.576816,127.101801,9341.0,3397.0,7.0,yrjdF_zwfW`@RNBRPv@tAHH^@XXBHVJAPDFZAf@RF?NEPLPBXTNBJH
25403737,진옥자전거캠프-아차산(전망대-용마헬기장)(JOBC),1264.7,3.4,37.563463,127.101889,37.572889,127.101237,8257.0,2791.0,0.0,srgdFwqwfWWIM@OCKMS?WGQQSMIKYKCGOKk@@a@Ce@GMMGHGBEEYI]Cw@Mo@G_AQy@GY@k@Ja@McBMg@c@MCO@[IUAOEQ@UE]Mo@OSB_@?[CG@ECQAUJkA[MAUISUs@c@a@Ei@?[HQKSSSEoANULOPM\EPKFCTAtAK`@@FGXGfAKPQNc@VM\KHBNIn@KTOH
21385315,진옥자전거캠프-서울둘레길2구간(사각정갈림길-아차.용마봉갈림길)(JOBC),1481.2,6.8,37.58417,127.106604,37.573868,127.100958,5417.0,2620.0,2.0,atkdFgoxfWd@t@n@f@PVZZT`@Hb@HxBFTVZZj@J^Xj@Pf@Lr@Tb@BDb@Lt@d@H@HNb@LLJTXLDREX?RGLBJIJBFG`@EJHJ?JFLBDCT@b@VLBZBVGZLL[J_@@OAMBMDC?IJERJXOT@DBdAPHHJAVJ^^FTDD?HBDPRH??CBPJDNMNPN^FDHKFDEVFC@GD?@Hd@Jp@XLDj@^F@PHj@R\R^\XJPLd@Rh@ZD?h@MV@^O\KLAvALl@VZVD@R?LIJA
19818878,진옥자전거캠프-아차산(청노루표시판-전망대)(JOBC),596.2,8.3,37.572162,127.103249,37.566841,127.102889,12687.0,4274.0,1.0,_iidFgzwfWDGJWP_AHGrB]XHBDRBNIVCRGFIDMXALFX\NLp@Tp@Cd@F|@Td@@JAVFXGPDz@D^JLL\Rj@PNRH@b@?F@TPd@Td@A\C
25824234,진옥자전거캠프-망우산(동화천-계단입구)(JOBC),900.1,0.0,37.581673,127.110174,37.578937,127.103242,889.0,373.0,1.0,mdkdFqeyfWHVHbAJTH`@BDH@^XPAHBREJ@^?PDj@Zb@LREN?^DPHTOLCJDN?VDLHDXJP@P\XDHE\FX?RDRBRCZB`BIn@Df@O`@?NBL?JGNMFO@OPi@bBDLLRDP@pAHTBXH`@?l@DLADHd@Gf@Pb@XVDl@P^
19639462,진옥자전거캠프-망우산순환코스(언덕구간2)(JOBC),902.7,1.8,37.59243,127.115824,37.587053,127.110134,6921.0,1197.0,1.0,ugmdF{hzfWBp@ELMh@GN@VCFHz@TZv@b@TVTLPBZCJFf@v@Xz@HNJFFBh@Ex@OPFBF@ZIr@?b@DTTp@VVR\~CzA\T`@RTVh@VrA~@TDHHPFPBb@ANDf@b@`BvB
11346988,용마산9시방향 정상까지 달리기!! 울고싶은 경사도,661.3,34.0,37.57729,127.090362,37.571371,127.09566,140.0,68.0,3.0,aijdFwiufWAkARMz@O^S\[FC`@EH?HC^CRk@HGNDl@I\@FG\B`IwGJOHYXa@`@EDg@JSHg@BEX[LGHMZ]b@s@DI`@k@v@u@FCBKVIAMBKE?@[N@VS`@Qb@E
3623578,암사3동 산1 1 Climb,884.0,5.0,37.5660076,127.1339011,37.5668824,127.1435569,14542.0,4973.0,27.0,obhdF{y}fWaA_Dc@aAY{BMo@]sAS{@OoAW}DOcBEuCByB\kELmC\oK
21644250,Guri Track,398.8,-0.2,37.589945,127.163593,37.589938,127.163626,25906.0,547.0,4.0,cxldFmscgWcEm@SFEJCN?DFPJHZB~AT\Bp@NrALJCFW?KGQWOcAO
26817776,수석동_깔딱,317.0,11.9,37.590954,127.179507,37.590413,127.176077,1873.0,799.0,5.0,m~ldF{vfgWA^Eh@@ZRfBf@bALb@F^BrAJb@Hj@E`BD~@DP
3885420,Segment,666.4,7.2,37.567688,127.151878,37.56668,127.144764,11243.0,3717.0,5.0,_mhdFejagWJFJPn@lBp@dCRpC\nA@ZPfABh@FP?XHbBAp@DZCZBNC`A@ZE\?`ACNBH@XIl@@ZAT@JCFEx@BTAr@BZ
18962884,암사고개-고덕교 다운힐(강.철),946.5,-3.8,37.566944,127.143662,37.568535,127.153577,10319.0,3423.0,3.0,khhdF{v_gWAR@E?q@Fc@?uABq@HgAHa@Bc@HgCAs@Dm@?{@HgBMeFMiBGa@k@aCEgAQaAc@gBu@sB_@q@kAkDc@e@IU]}A
19410641,진옥자전거캠프- 고덕산전망대(JOBC),272.9,15.6,37.565426,127.142166,37.565777,127.14471,1834.0,864.0,1.0,{~gdFom_gWRMGSBUBOPe@CY@s@Ge@?a@M]o@oAKIKGe@KFs@Py@
19565161,진옥자전거캠프-서울둘레길3구간(강일-정수장)(JOBC),1608.8,0.9,37.56289,127.15615,37.565617,127.14226,487.0,346.0,3.0,aogdF}dbgWLfA\rBANK?EPAx@IDOXa@^GLSRo@bAKZUZEh@QRGPKFIXEVDj@BtATXOx@@d@EXI\c@\Kd@Cb@Q^Gb@K\Yv@SXCvAJ^Bb@Jd@J^VVn@N@BKNI\A^J^NVPNV\R^Fj@?r@JT?v@D^CXs@vAc@n@YX[N[X_@L]BWAs@?q@JWPSRc@t@Ud@Gb@?j@BNLLPFJJ~@fAPVBT@dAKn@Uj@NNFN_@JYN
22797855,진옥자전거캠프-서울둘레길3구간(강일깔딱고개구간)(JOBC),363.1,8.6,37.562857,127.154989,37.563791,127.15147,843.0,426.0,1.0,yngdFs}agWAd@BVIFKXa@`@e@|@GVWh@IX_@XMTGVGd@@TEl@H`A@j@JVMx@@n@
22797924,진옥자전거캠프-서울둘레길3구간(고덕산)(JOBC),184.3,16.1,37.564125,127.148548,37.563601,127.14675,856.0,443.0,0.0,wvgdFku`gWEFAP?p@Pl@PHHHh@dAH`@?r@Jb@@V
34031381,망월천 한바퀴 (시계),5322.3,0.1,37.570598,127.178776,37.570179,127.178891,1162.0,156.0,0.0,e_idFirfgWLsAL_@TkARe@F[Rk@Lg@Re@ZeALYZoAj@oATw@Tk@T[b@[LO\U^Qd@OrAMHCLODUCS[eAC[ToANi@JI`@@TBR@r@RLAJGP?CDh@e@L@LCj@UXa@JW@_@Tu@@KHeBCa@ES?S^k@Lw@?[Eq@BUdBuER[XSXMl@GJETK~@q@JEn@E`@Gz@GfAD^ETIRGj@_@`A]t@w@|@u@RMXI^?PBVEdA@bAJn@Cf@Ld@CPFb@^RFVAh@Kv@Fx@CvCcAp@[XGn@Yb@]lAkAdAkAd@]l@g@t@a@nASz@IlAUV?RB\Pd@`@`AfAf@p@NZ?r@a@BMCEE{BmCKIQG_@CeD`@SDWPsC`CELEv@ENoAdAIBI?_@QM?yFbCgALe@?_@S[O_B]i@QKGQU[GK?OLU@g@?WEQA{@F}@@]DYL_A`Ak@`@y@f@_CjAUZYp@K`@QdAKx@e@|AMXw@r@y@bBQL]DkCDO@KFc@^]t@Sz@WvCGTKN[Z}@j@UVg@NOHICWBMHGFEP?TLv@@^If@MV]\WJiBTc@@}@T}@t@ORu@lBI`@En@HtAEVKXMPSLw@RSPGLu@`CKn@Gx@
33840158,Blast it from 행주대교 🚀,1271.0,-0.1,37.605648,126.810869,37.614125,126.80129,453.0,245.0,1.0,gzodF{v~dWyEbEcClC_CtBsAfBa@ZuBrBq@pAcB`Ci@`AyA~A{AlBs@p@}@`AiA|AmBrBiBnCkE~F
10601182,Loop de Loop (CW),676.5,0.0,37.626785,126.829491,37.626712,126.82944,35346.0,670.0,14.0,k~sdFikbeWIj@Ah@QtAGxABPN\V\~Az@H@j@St@_Ad@w@Le@f@mAFYBWEaBEq@EMQYUQu@Ww@Eg@TWXa@v@a@l@
15215711,지도공원(up&down) 5바퀴(약3.5km),3520.9,-0.0,37.626884,126.82796,37.62664,126.827877,4873.0,422.0,7.0,__tdFwabeW~@j@\XLB\D`@@ROh@u@l@cAj@gALa@Be@AqAe@_CgAiAaAGo@h@Wd@a@rAg@bCQl@IvAXr@`@Vr@h@d@P^A\W`B_CVg@Jc@D[IkCq@sB}A{@w@ZSRMRWl@[|@o@nDKnA@JzArAx@\h@?\Qx@kA~@iBJs@Bs@UiCcAgB[Ks@C[LYXYf@cArDi@nC\nAl@h@l@`@l@Hp@MT[tAgCVs@D]?c@MiCc@iAw@w@IM{@Fe@RSZy@zBg@|Ba@fCbAvAf@Xt@Xd@A^_@^m@f@s@d@{@L[H]@YGkCe@qAwAsAQA_Af@ONYj@IRyA~Gz@zB
4302749,Segment,995.2,6.3,37.611927,126.845904,37.60628,126.848153,53.0,15.0,0.0,oaqdF{qeeW`@I`AEL@b@GtALj@ESQ?GUOKDg@DKAOg@I}AGe@Gm@@}@B_@FWROVMLCNLv@`@n@@NC\?L@PHLADEJCRWPKPWVQDCFB^AHIHAn@m@TMJCDCJ]h@c@ZLLCJFJ?ZHTXJDRDb@PbATh@ZNNLBJCN?RGTDJA
38658096,BRIDGE TO STREET,942.9,-0.6,37.596798,126.8407,37.599572,126.849028,5574.0,2422.0,0.0,}bndFkqdeWBe@NkI?oAHaFDmG?u@Ei@_@sCi@eBm@iAy@iAq@k@MOKAIBy@v@S@o@a@cE}D
30076681,충장근린체육공원 1바퀴,450.6,0.0,37.614884,126.825128,37.614898,126.825118,37298.0,366.0,2.0,_tqdF_paeWb@t@`AtAFFN@HEl@iA`B_CDKAIeAqAe@g@ICcApAkAbBWX
30076674,지도공원 1바퀴,684.0,0.0,37.625318,126.830034,37.625313,126.830055,35602.0,641.0,1.0,eusdFunbeWU_@OKeAi@IA[?YJ_@^g@pAM`@q@vECZB\H\LPdAx@n@TVBJCFGb@eAdA_Bb@{@N{AC}@Gk@Wm@
28217084,Jeungsan 5k - Monster Stairs to Bongsan View Point  ,489.7,4.3,37.608359,126.902034,37.612251,126.901249,7209.0,2415.0,3.0,ekpdFuppeWULK?o@PGFM@c@KQKQEI@a@CSJ[BSAK@MAIBSD[Ve@JUPm@^IJSd@E@G?KGEIe@H]SQAe@L[CEDcAXMJEACC@UFI
28216981,Jeungsan 5k - Saejeol to Monster Stairs,1364.2,-0.6,37.595218,126.901952,37.605883,126.901714,6349.0,2296.0,3.0,aymdFeppeW}@`@U@KBUCOBONQ`@MFU@IPmAEIBIHWL[?ODM?QDS@MCe@QMOWAKGS@KCg@A]GUDaABQPKDo@Iy@DIAWHMAEFEBEAO@OAQ@YPWDY^KFy@RIDEZM^UTOB?EMUCDE?IEGIOCGGW@KZQFOT[HoAYq@Y]JGJS@ICMAGEIWAWGSKCAs@Eq@Ik@M[a@_@YKEGe@KMM]TWEQGa@JMLg@HG?IBMAUDUEa@FIAIDWDWGM?QNG?
20299261,진관배수지 한바퀴,222.2,0.2,37.629957,126.91635,37.629971,126.91634,1993.0,31.0,1.0,ertdFejseWGAGKICSLEF@TG`@SNCF@VDTHL`@Ed@Qd@k@@ICGQKIQSY
28357776,TRB- 앵봉산 업힐 ,1428.0,11.7,37.619392,126.907174,37.629651,126.908211,4607.0,1983.0,3.0,eprdFypqeWIGACLg@_@_@QGMOKGO?OEC@CAO?KEGE?CC?QMKSGAG@GGKA?IKSGEWAKFKEK?GDAEGFYAKFG?KDG?KJABGAIBEFE?SXKh@MVGFI^QH]HKCKBYCCBGEOAQBM?WLi@x@_@ZQFSAy@@QHOPMFI?IGKBGBGCY_@ECG?IMWMEKO?[UQYGSQQCQIOCSKIC?WOACMCGMIGAWISW_@IEGKKCGGG?SEO[QQI?KGI@QAe@UE?YPIAC@O?WEK?IBCAi@@MCKKWICCIAC@UGYIGGSEIES@SFGCYDWJQBIFECMXC?CDK?GBGAM@i@PIAC@k@b@GRANM\
31253742,도래울의장대공원(습지)뺑뻉이_TeamKFC,415.3,3.3,37.62819,126.87391,37.628211,126.873908,6305.0,115.0,0.0,cgtdF}`keWK?EFCN@XR`BNj@HNn@r@d@Vb@Fd@OLKJWBYCc@Mi@i@mASKG?e@JQAICw@q@K?
30173045,한국항공대학교 운동장 1바퀴,341.3,0.0,37.601018,126.866184,37.601013,126.866199,5015.0,118.0,1.0,i}ndFspieWrAf@N?HCFOHi@Pi@BMAIQW{CeAK@IL]dB?VlAd@
34792742,봉산 계단오르기 1,573.8,18.1,37.617053,126.902808,37.612587,126.90108,2309.0,1084.0,1.0,qardFoupeWDHJ@T\FIDFT?NLLRX`@X?VXBHLAFFL@FHAJBEB?LDF??@XGDBLMDAXD?CDE?KFAJFJ?JDDTHHJHXFRINAd@IJAPNTEVHBDNAXRV^FBJALDJNFDb@NTLBDLDTLv@JPAFE
30522012,꽃향기 런,4696.2,0.1,37.605491,126.893687,37.605959,126.893271,111.0,20.0,1.0,iyodFo|neWJBJEHUj@P~@f@RFHCf@C\FNCBERI`@@XJ`@ChAl@p@Tf@Hd@D^Rn@R\Bb@Kb@An@D`AGnBGfAFbAh@^Zt@dAX\dA~@fAxBv@lAn@v@lBvAlAf@`Bl@ZZ@FbAj@^Zb@l@VRV\Zr@\\TNh@h@`Ax@Vb@Th@Fr@Ep@Dl@^v@@AES?MB?NTRj@VzAVl@\b@d@d@j@Zr@j@pDlC|@`ALRRl@fAxAL`@[Z_@E{AoCm@{@a@c@s@q@_@WgAm@mBoAu@a@]a@q@cBOg@Q[Sg@EQBE`@`@Sg@Oi@S}ABo@Mm@_@[}Au@y@y@_AqASUGCc@Ea@P]^Kj@?VLl@ZZ`@Lf@@d@FRTPb@\`@d@GZa@?o@I[BAp@VeAs@a@[]a@}AcC[_@qAo@cE{AaAm@a@QyAyAw@gAg@qA][e@iA[a@m@oA_@Y_@SqAQiCFg@Hy@Bc@OeAAc@Ea@Ua@KaAa@e@EY?e@SiAAQHmACa@MeAIe@Ig@DiADa@E
34907520,앵봉산 계단오르기 4,325.4,8.9,37.624696,126.907053,37.622152,126.907327,,,,
34792758,봉산 계단오르기 2,252.4,16.5,37.610431,126.901641,37.612513,126.901057,,,,
18935062,[Tom's] Gate downhill to Rose Garden,1821.8,-7.0,37.608264,126.951404,37.610389,126.941653,,,,
18935033,[Tom's] Rose Garden Climb to Gate,1803.9,7.4,37.610596,126.94129,37.608282,126.951203,,,,
1620966,진관동 158 28 Climb,491.6,9.3,37.6229472,126.93267983333332,37.626521200000006,126.93241496666666,,,,
20414792,[Tom's] Jokduri 'Easy' Climb,930.4,22.9,37.620034,126.936881,37.617704,126.941994,,,,
19335743,[Tom's] Ecobridge climb to the gate,2191.1,6.1,37.598155,126.938063,37.608229,126.951264,,,,
21312987,TRB - 북한산 향로봉 버티컬,190.0,38.7,37.62407,126.951526,37.62535,126.951654,,,,
19381377,[Tom's] Rose Garden Climb to Bulgwangsa,675.3,5.3,37.610308,126.942045,37.613279,126.93863,,,,
6931268,△북한산: Jokduribong Climb,1058.1,24.1,37.614486,126.933989,37.617705,126.942022,,,,
24299005,북한산 구기탐방지원센터 ~ 사모바위,2114.8,16.8,37.61642,126.961613,37.628091,126.959208,,,,
20732253,Jarak-Gil Climb,1103.8,6.6,37.596674,126.952911,37.603658,126.952658,,,,
7641157,북악스카이웨이(하늘한마당->팔각정),3977.8,3.5,37.595979,127.006592,37.602282,126.981966,,,,
21090774,북한산 둘레길 4코스 / Bukhansan Trail #4,1450.9,-2.9,37.621057,127.00727,37.618661,126.996838,,,,
18915927,Golf to the sky,1512.7,7.3,37.602128,126.997216,37.60706,126.985562,,,,
4967533,Segment,315.7,15.2,37.606393,126.985098,37.60439,126.984304,,,,
16194161,북악팔각정 - 정상,1139.2,-1.2,37.601447,126.980943,37.60774,126.986435,,,,
5233428,Segment,948.2,8.8,37.601496,127.012191,37.597674,127.005792,,,,
1454507,평창동 404 Climb,805.7,6.4,37.61446431666667,126.97956836666664,37.61732928333333,126.97507871666666,,,,
6377256,Segment,706.4,8.6,37.62789,127.00862,37.62404,127.00965,,,,
1454506,정릉3동 산1 278 Climb,935.2,13.4,37.61512618333333,126.99275266666668,37.61433513333333,126.9852246,,,,
1454505,정릉4동 산1 59 Climb,902.4,12.1,37.61714466666666,127.00224495,37.61644073333333,126.99525691666668,,,,
21075363,미성아파트 산책로 리버스,634.1,-0.1,37.622378,127.066041,37.617123,127.0672,,,,
21075336,미성아파트 산책로,576.5,0.1,37.617408,127.067122,37.622316,127.066087,,,,
11407622,[중랑천]5K_한천교↔녹천교(동)@ddamdo,5143.6,0.0,37.626128,127.068636,37.626115,127.068559,,,,
20970436,장미공원 트랙 (800m/반시계),805.2,0.0,37.604652,127.073181,37.604643,127.073191,,,,
23699757,중랑천 장미공원~한천교,2017.2,0.0,37.606544,127.072406,37.624342,127.070134,,,,
28335507,우이천 월계2교 ~ 꿈의숲SK뷰아파트 103동 앞,518.0,0.4,37.624284,127.050175,37.620567,127.053765,,,,
7719942,Rose Run 중화-태릉입구,1462.7,0.1,37.602796,127.074005,37.615574,127.073578,,,,
16130309,[hirun]월곡인조잔디축구장,429.7,-0.1,37.608256,127.039812,37.608172,127.039869,,,,
7713860,Rose Run 태릉입구-중화,1575.7,-0.1,37.61623,127.074597,37.602602,127.074118,,,,
10116063,천장산 업힐 1,690.5,10.9,37.605906,127.054992,37.602074,127.051736,,,,
9685788,[휴레] 봉화산 둘레길 한 바퀴,4007.4,0.0,37.611262,127.082819,37.611045,127.082732,,,,
18670656, 먹골교 Last 1km,1055.9,0.3,37.619136,127.081993,37.61767,127.0929,,,,
13788190,주차장기준 시계방향으로 한바퀴,4541.0,-0.1,37.597863,127.115192,37.597708,127.114873,,,,
11142972,과기대트랙,425.0,-0.1,37.62974,127.078949,37.629773,127.078966,,,,
9759312,봉화산 한바퀴(성덕사 약수터 큰바위),3661.8,0.4,37.60618,127.084968,37.606064,127.089038,,,,
27641946,종합운동장 5km,4997.5,0.0,37.627434,127.099751,37.628117,127.100224,,,,
17265684,홈플신내오르막270m,278.9,2.5,37.615715,127.092841,37.613456,127.091501,1494.0,135.0,1.0,eyqdFgyufWHBr@^`C|@`@T`@\`@LjAl@pAx@
27914652,한바퀴,4272.5,0.0,37.620365,127.09929,37.620358,127.099285,245.0,41.0,3.0,gvrdFqawfWs@{AuAeC?HXj@fAbBXn@F^D@A[Sm@qB}DUm@W{AKuBiAuFa@gDUq@yBsD_@a@yBsAyIgEcBcAWIM?g@@KBQN}@nAuAlCUrAGr@Mt@Ez@OdAUr@QbAO`@[fBEr@Fv@T`Av@hFNh@Vb@hAvAd@v@lCnGTj@V~@b@pBlB`Hp@hCl@fBh@jA^VnClAf@CtAuA\U\?^^rBpC~CvEl@r@zAr@hBbA`@HL?f@I`@]dAcBnAgCRm@Ry@\eEXsBRaA\cALe@?OOsBAs@J_DAOEUMc@S[WYw@a@S?a@Na@Rs@l@y@x@a@RE?IGa@s@iA_CoBgD
28037549,봉화산 둘레길 1바퀴_반시계방향,4123.2,-0.4,37.612628,127.090843,37.612989,127.091054,62.0,14.0,2.0,{eqdFwlufWIP@NVj@Vt@RRNCVFZKPCVRPTRCJGFOD[DCRIB?J@PPLOJSLCHFJVR`@DBN?NDL?BD?HBF\Bn@RPXHVHJ?LO\@NAHED_@TGFKb@GHKZEDu@NIFGXWj@CLIP]FSAi@Z[BC@AJ?b@CH@BRL?p@EJURGRIFEJKJER@TCHWJk@BQDWXIj@EFILWJ]@YG_@KaAg@OCI@KLAFQNAj@Kb@@BZLXj@TXP\FFZJFDBDANERKR?BB@@ECLJKN?HEF?RNZ`ARRn@Xd@^f@GVLb@HRJZX@NHNBj@Hj@LHXHNJ^I\AVFNGFAJBLJNd@NHJ@NCDMXa@PMRDHNB@NKN@DCN@LFh@CFCFKFEt@ETKJOR?TNNBNIZ[\aANCVIXULWZKEMMQYe@DYFEL@PGf@y@DWDKDCTIRi@LUJARFVPFJH@PONIJ[X[BIFIL]FED?JLLBDFXBb@CJKL?FGC[IYAY?[GWAYISW[?UJu@Cc@EMMGEIFk@NW@G?IEMEa@I[Cc@[c@e@a@AQFc@GSOO]UEGMIOAGIUIIASLQ?a@BOCKKWKYJIHUKGGQ_@Ke@IFKEGI[KG?EEU?IGG_@Q]G[MCSMGKc@g@KIOC@KLk@@_@HKRKHKCu@MCQI[[M?W[UA_@@MCWm@EAM?ICGi@MYBMASMU?OM]Hc@FQ@SEEYMWIU@s@XEj@INIBIEQ@MXALDRE\CDGDY?g@HCDEN?VLb@BTETMZQHO@[EUKQ?OXYLIJGBQVGBQBGHBTELCXQp@KNQIc@GWM]G
25944989,신내 옹기공원 1바퀴,414.5,0.0,37.614922,127.088812,37.614861,127.088769,5408.0,149.0,3.0,gtqdFa`ufWJHj@IL@^Ad@FTCZGTAt@FNDd@CZDZEDEeAGQB}@@I@YLWDs@Im@?O@[EQD
26434119,남양주 체육문화센터 반시계방향,406.4,0.1,37.605459,127.177507,37.60546,127.177556,153806.0,929.0,3.0,ayodFkjfgWXYLUBO@YAQM]OO[Ia@Dw@V[DkA^QTKd@@^HZXXLB\Af@Qt@Ob@SVG
27379209,황금산_깔딱_2,391.1,12.0,37.604671,127.159436,37.606013,127.163073,311.0,68.0,1.0,etodFmybgWEa@C_AG{@Wu@]w@Y_@]W[SQG[Wq@{@Yu@SgA@SNg@BU?i@Fi@
12029811,왕숙교 출발 왕복 10키로,10007.7,-0.0,37.603805,127.148825,37.60372,127.14892,165.0,94.0,0.0,wnodFcw`gWTS\OpGiBfImCz@a@hC}A`Bs@n@c@hB_BzFmG|AkBZk@Vs@dDgLHSx@iARi@\eCjAyKj@qE^gB|AeEVeALQHCPOVKl@]fBk@b@SjB]NG~AcA^KpC\vBHxFr@tAJpEl@|Ed@l@L~C\pARp@PXLl@FrCr@rBf@h@Th@HZJj@`@X`@lAdCxApD^t@\d@x@bCx@fBVp@h@dAh@dBzAlDz@jC`DxHjA|D`AbC^fAlBrEnA`EFd@t@zDb@vC~@`JNhCPjE@pCC|D?J@@@AEoEUsIk@yHa@eEaAqFq@mCm@kB}AgEuBiFg@cBQs@c@uAeD}H_AoCaBuDc@_B_@s@_AiCu@kBWg@YW[k@c@gAaAmCo@wAc@w@o@m@a@OaEeAwCq@q@Ga@SUGqDg@mGw@mLmAsEk@eA@UAyCa@O@UF_Ah@q@ZeB^y@\uA`@eBz@QPw@dC{@|B]`BqBxQYfCO|@APCFQBOFi@l@w@rDoAbEk@fBk@dAu@bA]ZwC`D_BlBuC`CmAl@qAj@u@b@i@`@oCpAwAXwD`AgA^kCr@q@X
28309763,남양주 체육문화센터 1KM,1003.7,-0.0,37.605494,127.177502,37.606391,127.178071,70227.0,893.0,0.0,iyodFkjfgW^_@Ne@?M?[EWUYYMIASBo@VuBl@SVKh@@`@DPPV^TR?h@QNANGh@KXM`@ILILYDw@?KSe@QSWIOBw@Ty@NUHWB]POVEN?\BRNb@JL^PP?|@Un@Ut@OV[HOBQ@]G]IOSOUEWBqCl@
28309771,남양주 체육문화센터 10KM,10002.8,0.0,37.605494,127.177502,37.605492,127.177531,1495.0,335.0,0.0,iyodFkjfgW^_@Ne@?M?[EWUYYMIASBo@VuBl@SVGRCT@`@DPPV^TH?H?p@SF?NGh@KXM`@ILILYDk@?WSe@QSWIOBw@Ty@NUHWB]POVEN?\BRHZPT^PXAt@Sn@Ul@KFC\c@FY@]G]IOSOUEWB_Dt@MHMTGX?ZDVLTPLVDTCzCs@POLUDS?]G]IOSMUEe@FeCj@MFMJMVEX@VDVNTRLNBTCrCo@RINOHQBS?_@GYOSQKUC{Cn@[LQPGNEZ@XHXHNLHVF\CzCw@POLWBSA]EQMWSMUCSBcDv@OLKVEV@\HXJLRLTBpCm@f@OJKJYBQ?[GYMUMIUES@eDv@QPKTCP?ZDXLRRLRDVChCm@VIPOFODY?[EYOUQKUCSBoCl@UHKJMVCRARDZLVPNRDTAbDw@POLWBQ@YG[OWQKUCS@qAZcATOFQRGNE\@RHZLRPJRBRCbDw@POFOFYAa@GWMQQKUE[FeCj@UHONKXCZ@RBPLTPLRDRA`Du@PKLSDY@YEYMWQMSEU@qCn@WHIJMTCRAZFZLRPLPDZC|Cu@NMLWDYA]IYIMSMUEUD_Dt@QNIVEV@XFVJRPJRDTAvCq@JGNMJUDWA[GYMSSMSCUDyBf@g@NONKVCX@XDNLTRNRBRAbDw@PQHSDQ?]G[IOKKUI]@}Cr@QLMREVAXF\HRPLLDL@RC`Du@PQJUBYA[GWKOQMSEWB_Dt@ONKPETAVF^JRPNRDTA~Cu@PMLSFW?_@GWMUQMSEO@u@PcB^SHORGLEZ@VDXNTPJRBTA|Cu@PMLUD[?YGYMUSKSE[DgCl@SFKHKRGVAPBZL\NLZFb@GpCq@POJUDYA[GYOSQKQCUBcB`@s@NKFMLMVCP?ZFVJRTPRBNAnAYjAWNGNSHQBYA[EOMWOKUGUBwCp@MFOPINEX@ZDTLTPLRBRAd@KnBc@RKNQJW@[AQI[IMSMQE]D{Ct@QPKTCP?XDVPZPJTB`AQdBa@LGPOFOF[A]ESOWMKUESBcDt@KHMTIX?XH`@LRPJTBTCzCs@PMHOFY@]G[MUUOMAW@uCp@MDONINEPAZDXJXRNTDZC|Cu@PQHOD_@AYGYMQUMSC}Cp@WJKJMTEZ@XFVPVRJR@~Cq@TKJKLWBS?[GWMUQMSEYDmCl@UHOPGNEV?ZFVJPVPRBXCtCs@ROHOFQ@[CYKWOOUI]@}Ct@MHOTGZ?RDZJTNNVFVArCq@
34663925,다산하늘초-왕숙길벗교 1K 달리기@StepUpBpm,1003.8,-0.1,37.628775,127.145367,37.620191,127.144606,10601.0,1332.0,2.0,yjtdFoa`gWpCn@l@Pn@r@^@vCh@`@DbA\~A^lEtArCh@p@@dCGz@En@KPYHCPOFALSb@Gb@DXAt@El@K`A_@fAi@j@Q
37927610,왕숙길벗교-다산하늘초 1K 달리기@StepUpBpm,1001.5,0.1,37.62027,127.14461,37.62873,127.145355,10623.0,1361.0,1.0,uurdFy|_gWcA^IDOPa@RYHQ?MLmA`@mAX[Bk@LoBPEA_@D_@EG@GA]Ho@BSGa@G]?MCWKiAQy@SSCUKe@M]QQAa@KkA_@WM]EQIKAQKiAU_AYYKCCUM{AY]Qg@GQKc@E
36834709,[HOTRC] 다산숲 생태공원 업힐 (by.구르는팬더),408.4,5.7,37.60101,127.171861,37.603455,127.173659,212.0,38.0,0.0,i}ndFcgegWONg@LUBwA@_AFKAMGKKK]CMF}ACwBCOMOEAOOe@SU?WBYAWOa@e@
31556888,브리지 to 브리지,2649.1,0.1,37.607518,127.147673,37.629777,127.14445,5803.0,922.0,0.0,}epdF}o`gWeCTe@Hu@FwC\mAHcB?y@CaCS_BUe@Ew@EoBAq@Da@FyBl@mAb@i@VoAp@_Al@c@\oDvDsAlA]@[^mAv@eEzB_BfBk@^En@cAT}AF]H}@h@]\ODwB@aEIqABmEAgCFaF?eCQg@Ky@U{DcBeB{@i@S}Au@kAc@e@Ue@K_@Su@Y
23331982,시그마 코스 by TerranGosu,7806.4,0.0,37.602465,127.150618,37.602438,127.15044,469.0,166.0,0.0,kfodFibagWN`@B?XKb@Wb@INIlA_@n@WvAa@j@Sd@Wl@g@zAoB^_@xAsA~@aAbD_D`@g@|A_Cj@mARk@TsAbAaBFQ@_@LcAl@iCNkA^yF?uAD}@PqAH_AHo@Vu@dA{G^iBj@gARs@|@wAfCiCh@c@ZO^IvBIn@QlAMv@AtAD`Fj@fAHtEh@fBVpD\hARvALtC\h@HXHnC\jAB\J|@`@r@Nd@Fj@@`Ac@DGBe@Kg@eBcGQc@Y_@m@aDa@}AaAoE[oAoA_HU{A_@wAq@eDWyA_@aBy@_GZfCT~@NhAd@|BPpARz@b@hCNh@v@vElAxFX~@R`AdA~D`@nBTf@Pn@`B`GBp@Q\MHYFc@Dm@CQIo@]qAc@mAGe@IkBSeCUoDg@i@EoASkAKkAUoGk@wAYq@GM?e@EwAW}@G_BEg@DsBXgA@i@Fw@Xk@b@aC~By@rASd@Ux@_@r@Sv@Qx@WbCg@zCW~@Kx@Cr@Mz@Ax@U|CCv@c@bFaAjDIh@GLQTk@~@Q`@M`AER}@vBc@t@u@~@eBjBsGjGa@j@_@p@a@f@WTs@d@]NwIhC
12651442,일산호수공원[휴레],4809.3,0.0,37.657529,126.766067,37.657139,126.766407,51441.0,4203.0,67.0,o~ydF{~udWm@Qs@Jc@Q_@[M[OQECO`@g@Z]\Ub@}@hA_@Za@Ze@PoBf@_@Xa@b@[`@Ip@?nCI`Ba@fCU`@}@r@a@Vc@Lg@Fe@@g@Eg@Dc@P{B~BUb@YxAOl@i@nAWb@Mh@Jl@Nj@Z^`@Vd@Rb@X|ArAb@Lf@CjA]bAg@^WVa@Hm@VcEPg@^WlBe@d@@fAd@h@Gd@Q`@Sr@o@\a@`@WdBw@fBiA`@Qd@GnAAd@Ib@UpBa@fAe@f@M|Ca@jB}@zB{B\Wj@EnA@h@Ih@Md@OdAk@`@_@Xg@p@oAdAaCJi@?m@Oy@Em@Jq@Ri@x@{@r@oAJq@DcBHo@Po@^_@`@Ud@Qb@W\a@Fm@@q@Io@m@sAOo@Wi@w@iA]Yg@KkA\_@`@Wh@[b@}@p@_@^Ip@N`BOf@Il@Pl@n@tALh@s@lA[`@e@Ce@W]YcAo@c@Qc@Ia@Na@\g@RmAHkA[mBaAa@YYK{@p@e@D[`@Kl@Gl@Cr@Kj@c@V_@\Sl@[\g@Va@Lc@BGE
14164266,일산 호수공원 [전시관코스 by HOya],4826.8,0.0,37.650011,126.771223,37.650051,126.771246,52976.0,4331.0,11.0,qoxdFc_wdW_@UOEe@@e@Ha@POJc@n@qBxBGT?p@Jj@?Xa@hAHj@l@rAXd@@RY`@Qh@}@p@WDGCKISi@eAm@_Ac@U?a@L]^a@Te@J{@?e@Cc@IeAi@a@Y]_@YQ_@\a@Rg@FCBUf@Kj@K`BCP_Ax@k@jA]^iChAe@F]Uc@Bc@HaAi@e@Ii@Hc@Re@`@g@z@y@hAqDvAQJu@v@KRGVCn@@jCKfAQvAWl@c@t@a@X]\a@Tg@Ne@Ec@Kc@D_@Va@RkA~@_@^k@jAKn@q@zB_@`ARzAVd@bAn@b@P~BhBf@Bb@Cd@M`@O^Wb@OVQNm@FkCL_BPi@dAa@NE`@EpBBf@HhAQb@SfAaAb@ShAY`@S`@Wz@_AbAg@`@Qd@?f@E`Aa@VIbCY`@Ud@Cr@UfASd@Eb@OZAb@Sv@w@l@u@d@Od@?b@Dd@Kf@Ad@EnAg@`@UX]l@oANk@`AuBNi@RwAAq@Gk@?q@Ng@t@u@Xe@Jm@@[^{@Ho@?cAVy@LSLI\M`@K~@g@POHq@BaAIk@Qi@OWc@cBQg@y@s@
18542598,일산호수공원 5K LIF코스 ,5018.5,-0.0,37.660946,126.763617,37.661064,126.762721,47091.0,4093.0,7.0,{szdFqoudW?n@Gx@]bAKz@Qn@a@d@]P]Z[NUF_AJYA]Ia@BULc@b@SLc@n@}@x@c@fC_@x@Md@a@n@ANBN^lAJNhAd@VFNJRH|A|ARLP@v@O\Qj@UZQZMl@e@DSBg@?EIYAORoCJc@VWv@YXGj@E^ATBLDb@ZLBR?n@OJENOf@s@j@c@`@a@`@Uv@Q~ByA\WTCr@@dAGh@M\WJEtAILCjAi@j@Gl@S|@Gh@M`@QZSVKNQ\WnAyAVQ`@Oh@L`@@x@QXAnAc@d@Yd@c@t@cAJc@Vu@Xk@NSHUNw@Dq@Cq@Ow@Fy@N]j@q@LYD_@NQVg@POHODa@Ec@?c@D]T{@JQXO~@WXCj@]PYDk@?y@E[Su@e@c@MSCw@EIg@m@}@w@IGWEY?i@LUN]NKPK`@W`@a@\m@\KLO^E`@LfADx@ELYXENL`@l@nAXZFX?\OVGXEDq@ZKB[?a@KIGU[YOo@g@SK_AWM@KDm@t@[R_@Di@AqA_@o@[oB}AEAIDe@z@IHKDm@JOHORGJANAnBEd@CLa@VSFIHM^QZc@\wAp@_@LYRYFQ@MCWSa@FS?KAc@UUUMGc@EOEE?MDUPa@b@S`@I\ITMTOL_@VSHq@n@YF_@@SPYDMFc@VYTQTIXKdALjBB|AKfA
21739532,백석축구장,2506.9,0.2,37.648661,126.795028,37.647616,126.794443,1031.0,85.0,4.0,cgxdF{s{dW?Hf@pAFr@^FjAUh@GZUKaBIo@EEqBXg@LSLFn@Jl@Nj@DBb@ApBWDECq@U{AISyCh@EBLp@Fp@Pb@b@LlAIZILi@CaBKWc@AqCf@f@bCd@Bd@Cb@Gd@?Ra@Aq@Cm@Og@i@BqCf@^nC^Ab@G`@EjAQI{AMk@MUgAVg@He@BQD?Fj@dCb@?b@Id@Cb@IJc@WwBc@Dc@Nc@Ha@FS@KHJh@Bl@Pt@rB_@j@ADm@McBGQc@Fc@LmBPCFBl@TzADJD@d@Md@Ib@Ab@I
27674264,정발산로  to peak,809.5,8.9,37.659991,126.772972,37.663514,126.779395,928.0,242.0,1.0,}mzdFajwdW_@iBOiACEDURe@Lg@AQUoAPoAHQ@ME[?k@Hs@FM?UF[GSG_AGOQMMCUg@UgAO[QUc@[YYY_@QEa@@OCk@k@_@iACa@EK[Ec@BgAZc@Aw@Sc@OmAq@
18644665,경의선 트랙 백마역-곡산역 (1.3km),1359.9,0.1,37.657083,126.794631,37.646116,126.801057,14382.0,1075.0,9.0,w{ydFmq{dWh@Md@Q^[|@_A~@m@`@UfAa@`Ak@bAe@v@c@~AeAhA]f@Ad@Q~@o@~@y@`@OXEd@YZ[Xa@hAg@f@Ef@IxDqB~ByAfCiAb@Mb@Qb@Uz@u@^Sd@Q^[`@Wb@Qb@MjAKjA[
18644699,호수공원 휴먼레이스 (new) (4.8km),4815.7,0.0,37.662823,126.761535,37.662925,126.761545,13028.0,1633.0,7.0,s_{dFqbudWf@QlAAjAE\OfAs@d@m@Ni@RiBF_B@eB@q@BQVg@|@y@b@W`Bm@t@e@`@]Xa@j@mA\YzHVvCsA`@Yn@qAf@i@HQDo@@aALk@Xe@b@Md@W\YL?z@~@\V`@Tb@Nb@Hb@Ff@?d@Eb@QbAw@b@Dd@N`@V`BnAb@Bd@M\]Rm@@o@Qk@q@mAGm@Lm@Bq@Ik@@q@Tc@bAu@Z]t@oAb@W`FIYdALVRl@n@hCCv@EXQf@_@\{B`Aa@^OZU`BCt@Oh@iAbBI\SLs@dAQn@Cf@FbAAl@Il@Ol@[f@gAlAo@jAY`@a@`@_@Tc@Xg@Ra@Ry@Ve@Cg@?{@R{@`@c@X]X_@`@eBjAeCZa@NiATeAZe@FgAVmAFc@Jy@l@DDgAd@qAt@_@Zy@z@c@Pc@@a@]c@Sc@Ai@HiA^[NY`@Gl@DlAAn@Bt@Oj@]VkBt@y@b@a@LO?c@Y{AsAc@Oc@U_@YSg@Ko@Am@hAoD\}ATg@nBoB
33840170,Baekseok Straight,604.5,0.2,37.635719,126.788848,37.639449,126.783879,6667.0,5669.0,0.0,evudFgmzdWmAjB_ApAm@bAkA~A_AxAwBjCe@z@i@n@}@~A{ClE
30441524,Baekseok Hosu Straight 일산 백석 호수로,1252.0,-0.1,37.644677,126.777443,37.637023,126.787568,1074.0,282.0,0.0,enwdF_fxdW^]V_@LKzBeDf@{@j@m@`@u@VWNSFOl@{@Rc@X_@N]TY^WR_@XYHUp@eADCh@w@^a@Ta@L_@p@{@h@cALK@ILILYXWP[^a@FUBQBE`@e@XUZk@HGj@y@HGRWl@{Ad@[FMRU@GLK^u@h@i@b@y@h@w@JEXe@LMZo@Xa@
38148692,정발산둘레길_Maru,3437.0,0.0,37.664442,126.776282,37.664374,126.776282,376.0,65.0,1.0,wi{dFw~wdWCNATHf@FFH?HEP?FDb@HF?XOH@^A^Dh@G`@?JEJ?JC`@]HAHFFRLNH?JGTAt@PBBVFd@FHAHITCPK|@?PPd@`AHZ\~@Pz@JPDBF?NK^GDE@EEEEO?]RoAP]Ea@PuA?QDM@QIM?QW}@GGI?GGI?MQIe@IQIi@Qa@OWIACCa@Ue@{@e@g@g@q@_@eADUCQHGDKB_@PgARi@VQR[BMBYTgAH_AJe@Pi@Dc@BGFELMDOFi@?c@IQGEI@SPY~BCHINY\I`@QTELKHKBWBy@Ye@GOKOWIW@UFc@L]Lq@Hw@Nu@?UCMOM]IUWYIC?IHUn@MTMHc@PKPQ@IAGGW@k@`@WBSLKJQ\KDIAI@]XWFOL]?CB]CEBQJYXK@KFGHEPEFMBWA]XS?KKIMm@cBu@_@G@OJ?TCD[PIN[XMRg@NW@KHCRJf@CHg@ZIHENBn@DFL@RZ?NCPQ^CX?t@Vl@\h@FRJPHFBHx@f@HHZTBDNx@@TCRGNCPA@M?GFDR^h@VPRAVMLD^?l@g@HAHG`@m@RMNGN?b@FPL`@j@L?HDR?FBR@JN?POdAIJIj@MTIh@Of@
7371913,어울림 1 lap,426.0,0.0,37.649689,126.832012,37.649691,126.832013,453200.0,2172.0,24.0,omxdFa{beWfAA`AMd@AXMLSHc@Ca@IY][MIIAqDNc@HGRGXEd@@RHVPPVLT@
10643253,CCW Lap,346.5,-0.0,37.631352,126.832389,37.63133,126.832418,726.0,73.0,2.0,}ztdFk}beWKAi@OQ@CBCL?f@Cr@Kn@@JHTNJXBz@EZJFAFSHgAVeA?QEGOGeAE
18298993,400m,396.8,0.6,37.660743,126.838015,37.663172,126.841169,1716.0,58.0,0.0,srzdFq`deWEOMIc@aAa@a@Ye@WK[YEK?GMYa@q@]UWm@W_@GW]_@]SMKk@kAk@i@OY
33856360,Heungdo Ro,363.0,1.4,37.641788,126.85053,37.644852,126.851886,166.0,75.0,0.0,c|vdFynfeWOEy@MSG_@Qy@Wg@Yy@YwAm@oBm@{@_@gAW
40064690,대장천 직선주로,1184.4,0.4,37.644563,126.825013,37.634403,126.821138,3051.0,223.0,1.0,omwdFioaeW@Hb@@|@R~Bt@lDz@pCz@jEhAjDdAVFlCp@d@P`@HnA\n@TzBj@b@Rh@F~EzAfCn@fA^jBj@
33870669,은빛글린공원 full lap,725.0,0.0,37.639408,126.83711,37.639424,126.837131,9343.0,204.0,3.0,gmvdF}zceWXDfAAv@ZVAVIZWFK@MC_@Ma@OKo@Gu@Ko@E_@@c@Im@Aw@KiACi@OSFGHMd@CZFhAI`BBFDBJAnAc@x@EtAo@HCP?
38434960,호국로 남-북,2022.0,0.1,37.630885,126.823539,37.648164,126.830335,807.0,121.0,0.0,_xtdFafaeWc@U}@[oDkAUCO@MFKAa@YaCgAaBa@aDkAk@QyBqAwBiAsAg@aBgAkB{@{BoAuFmC}BmAwAg@_EiAoDm@{Fe@WAm@Dg@C{ASICy@EaE[mBa@aBS}@UyAWyA[
40691845,성사체육공원 한바퀴,1067.6,-0.0,37.663697,126.844676,37.663701,126.844676,2737.0,156.0,1.0,ae{dFejeeWW[ISYw@Iy@?e@H_@Rk@r@aATU`@UPEL?VLRTPHVB|@Gh@Ff@Lh@DRFFFDP?LKRM@m@[SCWHYPINANFNLF|@L`@XRTTd@BtADRPZb@\HLHRAZIVKBUGOKu@cAe@SYUI@OPODeB`@[Bc@KeAe@g@e@
38434958,호국로 북-남,2021.3,-0.1,37.648253,126.83032,37.630764,126.823445,498.0,107.0,0.0,qdxdFopbeWv@T|Dj@tDz@bAJ|CPlAN`CJl@Jf@Ah@BbAJ`BJb@FpB`@xBj@~@Ll@Lz@X|DtBjIdEfBz@dBbAdAb@hDfBrDzApEzAbCbArBr@jF~Ax@\
36066903,Hwasu Park Loop,488.0,0.0,37.644109,126.837108,37.644101,126.837138,94.0,12.0,0.0,sjwdF{zceWJmBEm@Pq@Dg@A]GWGGUAs@JaADYJIFAFA`AKz@?dAALQZ@JDHHHXFt@JbAFJAHGFMBO
33856335,서삼릉길 1,652.0,-1.7,37.657101,126.875968,37.657496,126.868718,391.0,128.0,0.0,{{ydFwmkeWKZGb@GdB@XHf@@l@FrAAb@Gx@@ZLlAUjF?bBHlBEnAArAQbCQhAUfA
30500603,롯데은평몰 도로방향 200m 쥐어짜기 구간_DDRC crew,208.0,3.0,37.638166,126.917055,37.636291,126.917307,24026.0,1202.0,1.0,oevdFqnseWP?TCFGTGn@@LEF@`@APIR?TIh@@BAz@A`@C
29622705,6.달갈부리공원까지 신나게 달려봐! 살빠져_Team KFC,517.1,0.2,37.637194,126.875233,37.641689,126.876629,24528.0,1684.0,3.0,m_vdFeikeWG?[OSIy@M]?QCm@QQMYKc@Iu@EYOs@SuAO]KUMiAAOGe@Iw@E[Ki@Gu@c@_@M
28738524,스타필드뺑뻉,1393.6,0.1,37.648213,126.89502,37.648348,126.895022,159.0,13.0,0.0,idxdF{doeWAUi@kBLS?E]k@OMUa@KIGDGEIa@ISGg@DIHG\MV_@f@k@XSz@g@`ASVDNn@J~@VbAF`@p@jBF`@GHBPFJLDX\h@pC^pAv@vB~@|DA^Qp@g@x@o@Bc@XOd@UJKO[WOWUWKGISg@O?CMk@Sa@Ki@Aw@Uw@?]M]HKk@_@GUS_@Uq@Cc@G]?KS@FC
33856374,To Seosamneung,537.0,-0.7,37.657878,126.868554,37.662361,126.866768,243.0,108.0,0.0,u`zdFm_jeWm@Qs@?_ALo@To@DyAKUGOGI?i@Zg@j@}@x@sBdAcBnA{A|@a@NOB
39686894,동산꽃맞이공원 도래울 벤츠 2K,2031.8,-0.4,37.648203,126.886227,37.633862,126.874527,9595.0,1023.0,0.0,gdxdF{mmeWPdAd@xAdAxBLPvAbCh@v@~@|ApBvDlAtCf@pA~BzEV`@p@v@b@`ALJN\XZ`A~A^XZNp@b@h@d@HNR|@Dj@d@l@RPn@b@|@d@n@Vp@P`@@hATlEn@^@|@NRAz@FfDd@R@x@R`ANpA`@xDz@z@V~@LdBd@j@HVAXH|@Fd@L
38713434,bridge to bridge,814.8,0.6,37.649508,126.889656,37.651663,126.898257,25353.0,1660.0,0.0,klxdFicneWUs@]uA]aAE]_@aB]iAk@oCe@uAKy@e@}Ai@{BIQ[eCk@kB[uAOmAEuBB}@LsABs@CUDm@
31253757,창릉천(수변공원)-창른천(삼송교) 회전구간_TeamKFC,2142.3,-0.1,37.643262,126.878245,37.643263,126.87823,614.0,154.0,1.0,kewdF_|keWeAs@MOs@gAk@q@IQI]?_@GOQWs@k@MEu@mAc@aA_AeBa@cAQi@s@}A{@}AMa@u@uAkBuCsA}Be@m@CG?IMSg@qAYqAGKOs@E_@WeACW_@sAAOFIbAa@XBJH^fA^`BPf@l@xBTn@d@~@v@FABHFFVj@|APn@RVd@fAZh@h@tA\l@Jd@\|@hArBx@nBNXl@vA\p@|@~BBNAPH^f@Lr@h@x@h@XTVHFJAL_@p@Wp@CNBJ
39686888,삼송역 도래울 벤츠 3K,3011.2,-0.4,37.651744,126.89629,37.63383,126.874519,6490.0,781.0,1.0,kzxdFyloeWD`AP\d@dB\zAR`Bn@dCf@~APhAl@jBVtA^nATjAFRThA\z@d@jBTh@FVbBnEVx@Lr@LfAd@|ANr@L`@^~B^vAnAjCLPvAbCh@v@~@|ApBvDlAtCf@pA~BzEV`@p@v@b@`ALJN\XZ`A~A^XZNp@b@h@d@HNR|@BL?THRp@r@n@b@bAh@h@Rp@P`@@hATlEn@^@|@NRAz@FfDd@R@x@R`ANpA`@xDz@z@V~@LdBd@j@HVAXH|@Fj@N
34907483,앵봉산 계단오르기 2,499.8,16.8,37.636288,126.914183,37.635834,126.910886,1674.0,927.0,1.0,wyudFs|reWGJQBKFG?IDICI?GBB^C^FTNnANp@ABJTFd@N^H?LDDHCLFjAJLABFH?HCHHP@^IVMDORG?EJc@V[ZIN@BNBBEf@Mj@DNCXORH
